postcode,name,subBuildingName,buildingName,buildingNumber,thoroughfare,street,town,postcode.1,FastestConnector_kW,chargers_count,latitude,longitude,rating,index
AB10 1LU,"Gallowgate, Aberdeen (1)",,,,Gallowgate,Gallowgate,Aberdeen,AB10 1LU,50.0,5,57.15083,-2.098296,4.544658839181959,
AB10 7BA,Aberdeen Snowsports Centre,,,77,Garthdee Road,,Aberdeen,AB10 7BA,50.0,3,57.121661,-2.126124,2.3294149996838525,
AB10 7LN,"Broomhill Road, Aberdeen",,,287,Broomhill Road,,Aberdeen,AB10 7LN,50.0,3,57.136221,-2.115193,3.2492734115984834,
AB12 3JG,Specialist Cars Aberdeen - Nissan,,SHELL REDMOSS,,,Balmoral Business Park,Aberdeen,AB12 3JG,50.0,5,57.1090045,-2.0958485,2.7428712095733694,
AB21 9LZ,Lidl - Bucksburn,,,,,Inverurie Road,Aberdeen,AB21 9LZ,50.0,3,57.179293,-2.17626,2.741546594473757,
AB21 9RG,"Sclattie Park, Aberdeen",,,3,Hopecroft Gardens,,Aberdeen,AB21 9RG,50.0,3,57.180102,-2.186746,4.249999006180811,
AB22 8AQ,ABERDEEN 1,,Bannatyne Health Club & Spa,,Laurel Drive,,Danestone,AB22 8AQ,50.0,4,57.1778175,-2.150003,4.248935137653011,
AB30 1AA,Robson Street Car Park,,,33-35,High Street,Robson Street,Laurencekirk,AB30 1AA,50.0,3,56.833729,-2.464344,4.995797494731053,
AB33 8AE,Alford,,,17,Montgarrie Road,,Alford,AB33 8AE,50.0,3,57.233457,-2.704014,4.99761954000164,
AB34 5HT,Aboyne,,,,Ballater Road,,Aboyne,AB34 5HT,50.0,3,57.076181,-2.779301,3.4956397530549914,
AB35 5YE,Braemar,,,24,Balnellan Road,,Ballater,AB35 5YE,50.0,3,57.006574,-3.398185,4.373485281027922,
AB39 2NE,Stonehaven Station Car Park,,Stonehaven Train Station,,,,Stonehaven,AB39 2NE,50.0,3,56.9663,-2.22564,4.373830844674568,
AB42 2YD,Peterhead Lido Car Park,,,31,South Road,,Peterhead,AB42 2YD,50.0,3,57.496034,-1.796328,4.369834837979351,
AB43 9BB,Fraserburgh,,,22,Seaforth Street,,Fraserburgh,AB43 9BB,50.0,3,57.694098,-2.004717,4.592028865657694,
AB51 3WB,Burn Lane Car Park Inverurie,,,Burn Lane Car Park,Burn Lane,,Inverurie,AB51 3WB,50.0,3,57.285427,-2.376251,4.793001927656443,
AB54 6JD,STRATHBOGIE 1,,Strathbogie Filling Station,,A96,,Huntly,AB54 6JD,50.0,2,57.440445,-2.766733,4.792547189228985,
AB54 8DF,Nelson Street Car Park Huntly,,,,Nelson Street,,Huntly,AB54 8DF,50.0,3,57.44771,-2.789727,3.993810303472088,
AB55 5AD,"Reidhaven Square, Keith",,,11,Chapel Street,,Keith,AB55 5AD,50.0,3,57.538617,-2.951777,3.8745316925330084,
AB55 5ED,KEITH 1,,Keith Filling Station,,Regent Street,,Keith,AB55 5ED,50.0,2,57.546367,-2.96483,2.6644815173887237,
AL1 4SU,Morrisons St Albans,,Wm Morrison Supermarkets PLC,244 Hatfield Road,,,St Albans,AL1 4SU,50.0,3,51.7513,-0.312499,4.04002045946582,
AL10 9NG,Beales Hotel,,,,,Comet Way,Hatfield,AL10 9NG,50.0,2,51.762341,-0.24088,2.7058309887964214,
AL2 3DS,Mercure Noke Hotel,,,,,Mercure Noke Hotel,St Albans,AL2 3DS,50.0,2,51.721321,-0.36561,2.710702089274954,
AL2 3EH,SHELL RECHARGE LITTLE WAITROSE CHISWELL,,SHELL LITTLE WAITROSE CHISWEL,,,551 Watford Road,St Albans,AL2 3EH,50.0,3,51.721151,-0.363483,3.745480428492077,
AL3 5DA,Adelaide Street,,,,Adelaide Street,,St.Albans,AL3 5DA,50.0,3,51.754914,-0.337567,4.198459645485258,
AL3 8HT,Harvester Flamstead,,,,London Road,Flamstead,St Albans,AL3 8HT,50.0,2,51.821098,-0.4214,2.498879378665151,
AL4 0QU,Glyn Hopkins St Albans,,Glyn Hopkins,,Lyon Way,Hatfield Road,St Albans,AL4 0QU,50.0,5,51.75183666666667,-0.2756479999999999,2.4970949981181523,
AL7 1HH,The Bakehouse Pub & Restaurant,,The Bakehouse,,,Bessemer Road,Welwyn Garden City,AL7 1HH,50.0,6,51.8023,-0.197255,2.4953388665558154,
AL7 1RY,Morrisons Welwyn Garden City,,,,Wm Morrison Supermarkets PLC,40 Black Fan Road,Welwyn Garden City,AL7 1RY,50.0,3,51.798793,-0.179171,2.9961374155508262,
AL9 5JY,Tesco Extra - Hatfield,,,,,Mount Pleasant,Hatfield,AL9 5JY,50.0,6,51.776704,-0.221432,4.4958442158915,
B10 0XA,Morrisons Birmingham Small Heath,,Wm Morrison Supermarkets PLC,,280 Coventry Road,Small Heath,Birmingham,B10 0XA,50.0,3,52.47352,-1.864838,4.490730982753508,
B11 2ES,Nissan Colliers Birmingham,,,884,,Warwick Road,Birmingham,B11 2ES,50.0,3,52.4519975,-1.831917,4.346189248449461,
B14 4ST,Lidl - Warstock Road,,,,,Warstock Road,Birmingham,B14 4ST,50.0,3,52.414035,-1.883844,3.6961294788503185,
B15 1LZ,SHELL RECHARGE FIVEWAYS,,SHELL FIVEWAYS,,,Bath Row,Birmingham,B15 1LZ,50.0,3,52.472642,-1.908471,4.298333997134396,
B18 7BH,Tesco Superstore - Birmingham Springhill,,,,,Camden Street,Hockley,B18 7BH,50.0,6,52.485724,-1.920248,4.246638163030742,
B23 7PG,Birmingham UFC 02,,,,,Eurogarages,Birmingham,B23 7PG,50.0,4,52.5101115,-1.8586715,3.9442917536802278,
B24 9PY,Shell Kingsbury Road,,,,Kingsbury Road,,Birmingham,B24 9PY,50.0,3,52.51852,-1.8052,3.3242899300051216,
B26 3QJ,Birmingham International Airport,,,,Drop n' Go Car Park,Bickenhill,Birmingham,B26 3QJ,50.0,5,52.452319,-1.731253,3.9959895525350104,
B27 6AR,SHELL RECHARGE ACOCKS GREEN,,SHELL ACOCKS GREEN,,,Stockfield Road,Birmingham,B27 6AR,50.0,3,52.454017,-1.829605,3.696909297834459,
B27 6DX,Best Western (Formerly Quality Hotel),,,,Birmingham South,47-49 Sherbourne Road,Birmingham,B27 6DX,50.0,2,52.449501,-1.8202,4.047707165816773,
B27 6RA,Morrisons Acocks green,,1149 Warwick Street,,,Acocks Green,Birmingham,B27 6RA,50.0,3,52.44627,-1.819607,4.148049198148099,
B32 1EG,Tesco Superstore - Quinton,,,,,Ridgacre Road,Birmingham,B32 1EG,50.0,6,52.458979,-1.998945,3.446376031015621,
B34 7EH,LCP Castle Bromwich,,LCP Castle Bromwich Shopping c,,,,Birmingham,B34 7EH,50.0,6,52.5018,-1.77111,3.8910465027364682,
B35 7AF,Holiday Inn Express Castle Bromwich,,,,,Chester Road,Birmingham,B35 7AF,50.0,2,52.509853,-1.797901,3.497667522428805,
B36 0LB,Morrisons Castle Bromwich,,,,Wm Morrison Supermarkets PLC,,Birmingham,B36 0LB,50.0,3,52.500448,-1.763348,3.8903757214299537,
B37 7AU,BP - Marston Green,,,,Station Road,,Marston Green,B37 7AU,50.0,3,52.467495,-1.751319,4.995564245063458,
B40 1QA,Holiday Inn Express,,,,Birmingham NEC,Bickenhill Parkway,Birmingham,B40 1QA,50.0,2,52.463799,-1.714331,3.4908399977101094,
B43 6NT,BP Great Barr,,,,76 Birmingham Road,,Birmingham,B43 6NT,50.0,3,52.550752,-1.93619,3.2416253546878346,
B45 9AH,Morrisons Rubery,,New Road,,,Rubery,Birmingham,B45 9AH,50.0,3,52.395931,-2.005653,3.244607420017689,
B48 7LN,Alvechurch Car Park,,Alvechurch Car Park,,,"Tanyard Lane, Alvechurch",Birmingham,B48 7LN,50.0,3,52.352212,-1.961166,3.370422643110952,
B49 5QQ,Kings Court Hotel,,,,,Birmingham road,Alcester,B49 5QQ,50.0,2,52.231598,-1.880521,4.996945815844809,
B60 1AZ,Bromsgrove Leisure Centre,,,,,School Drive,Bromsgrove,B60 1AZ,50.0,3,52.337003,-2.056129,3.6483443320910074,
B60 2QA,Windsor Street,,,,,1Windsor Gardens,Bromsgrove,B60 2QA,50.0,3,52.334653,-2.059756,3.8441966080128234,
B60 3AJ,Westlands Toyota Bromsgrove,,,24,,Buntsford Drive,Bromsgrove,B60 3AJ,50.0,3,52.314995,-2.0679515,3.899065310913165,
B60 3BN,Aston Fields,,,,,St. Godwalds Road,Bromsgrove,B60 3BN,50.0,3,52.322372,-2.047654,3.7436801727316804,
B60 3DX,Morrisons Bromsgrove,,Wm Morrison Supermarkets PLC,Unit 4,Buntsford Park Road,,Bromsgrove,B60 3DX,50.0,3,52.317288,-2.062846,4.492356340045167,
B61 0JZ,Golden Cross Car Park,,126-136 Golden Cross Lane,,,Catshill,Bromsgrove,B61 0JZ,50.0,3,52.36407,-2.059197,3.4970790307148762,
B61 8DN,Asda Bromsgrove,,,,,21 Market St,Bromsgrove,B61 8DN,50.0,3,52.336727,-2.061063,3.6953473776270864,
B63 4AU,Queensway Dudley,,,,Queensway Dudley,,Dudley,B63 4AU,50.0,3,52.44845,-2.05359,3.6473953553454375,
B65 0LG,Lidl - Oldbury Road,,,,,Parkside House,Rowley Regis,B65 0LG,50.0,3,52.476443,-2.036779,3.9901072484048674,
B74 2HE,Nissan West Way Birmingham,,,127,,Chester Road,Sutton Coldfield,B74 2HE,50.0,3,52.57739,-1.883613,3.665644065852515,
B77 2NY,Morrisons Tamworth Marlborough Way,,Wm Morrison Supermarkets Plc,,,Hilmore Way,Tamworth,B77 2NY,50.0,3,52.611771,-1.673339,3.664919775139819,
B78 3QP,Longwood Pub & Restaurant,,Longwood Pub & Restaurant,,,Fazeley,Tamworth,B78 3QP,50.0,3,52.61696,-1.7144,3.4999757111235685,
B90 4QY,Sears Retail Park 1,,,,,,Solihull,B90 4QY,50.0,7,52.40025233333333,-1.8155966666666667,2.9927878407282735,
B91 3QD,Crowne Plaza Solihull,,,,,Homer Road,Solihull,B91 3QD,50.0,4,52.4105205,-1.7807905000000002,4.247495980801976,
B91 3SZ,SOLIHULL 2,,Bannatyne Health Club & Spa,26,Saintbury Drive,,Solihull,B91 3SZ,50.0,4,52.3944475,-1.77833,4.327521168177911,
B97 6EJ,Abbey Stadium,,,301,Birmingham Road,,Redditch,B97 6EJ,50.0,3,52.318747,-1.941831,4.3234972430757175,
B98 0SW,Morrisons Redditch,,Wm Morrison Supermarkets PLC,,3 Clearwell Road,,Redditch,B98 0SW,50.0,3,52.301309,-1.904356,3.693655846783651,
B98 7HD,Greenlands Business Park,,,206,Studley Road,,Redditch,B98 7HD,50.0,3,52.292805,-1.917672,3.6975273316525876,
BA1 6AE,Morrisons Bath,,Wm Morrison Supermarkets PLC,,London Road,,Bath,BA1 6AE,50.0,3,51.391876,-2.35154,3.692354434327343,
BA1 7JD,Bailbrook House Hotel,,,,Eveleigh Avenue,London Road West,Bath,BA1 7JD,50.0,2,51.401398,-2.335291,3.691935826978783,
BA11 2RY,Commerce Park Service Station,,,,Commerce Park Service Station,,Frome,BA11 2RY,50.0,3,51.243725,-2.291382,3.691619892650025,
BA12 7DS,LONGBRIDGE 1,,Longbridge Service Station,,Sand Street,,Longbridge Deverill,BA12 7DS,50.0,4,51.166867,-2.188446,4.991436981251236,
BA12 9BP,Station Road,,,,,Station Road,Warminster,BA12 9BP,50.0,3,51.20598,-2.17868,3.3947826270721317,
BA12 9NT,Morrisons Warminster,,Morrisons Supermarket,,Weymouth Street,,Warminster,BA12 9NT,50.0,3,51.204157,-2.183451,3.6938365227848378,
BA13 3BG,Morrisons Westbury,,Morrisons Supermarket,,42 Edward Street,Chalford,Westbury,BA13 3BG,50.0,3,51.25996,-2.183488,4.992124575864877,
BA14 8EA,Duke Street,,,,Duke Street,,Trowbridge,BA14 8EA,50.0,3,51.32236,-2.20344,4.099631907336833,
BA20 2AU,Morrisons Yeovil,,Wm Morrison Supermarkets PLC,,Lysander Road,,Yeovil,BA20 2AU,50.0,3,50.935409,-2.646281,4.099083656288968,
BA4 4PR,CHARLTON HOUSE 1,,Bannatyne Health Club & Spa,,84 Charlton Road,,Shepton Mallet,BA4 4PR,50.0,4,51.1846775,-2.527674,3.4985294924850057,
BA5 1SQ,Morrisons Wells,,,,Wm Morrison Supermarkets PLC,,Wells,BA5 1SQ,50.0,3,51.20395,-2.648261,3.4979539715569192,
BA6 9ED,Glastonbury,,,,Wm Morrison Supermarkets PLC,Street Road,Glastonbury,BA6 9ED,50.0,3,51.145216,-2.720466,3.4937463495680334,
BA9 8AB,The Wagtail Pub & Restaurant,,The Wagtail Pub & Resturant,,,Long Close,Wincanton,BA9 8AB,50.0,3,51.0495,-2.4192,4.99995533136079,
BA9 9EB,Morrisons Wincanton,,,,Wm Morrison Supermarkets PLC,Southgate Road,Wincanton,BA9 9EB,50.0,6,51.049468,-2.417186,4.325277587820654,
BB1 1AB,Lidl - Blackburn,,,,,St Clement Street,Blackburn,BB1 1AB,50.0,3,53.7497,-2.459,4.342159794229348,
BB1 3HR,Eurogarages - Frontier Park,,Eurogarages,,Burnley Road,Burnley Road,Blackburn,BB1 3HR,50.0,12,53.753872,-2.4408,4.344737064490241,
BB10 1HW,The Prairie,,,,,Keswick Road,Burnley,BB10 1HW,50.0,2,53.809696,-2.234595,3.640646158601424,
BB2 4LA,BP Ewood Service Station,,,,Bolton Road,,Blackburn,BB2 4LA,50.0,2,53.72297,-2.486165,4.122432765895634,
BB3 0AT,EX Blackburn and Darwen,,,,"M65 Motorway, Jct 4",,Darwen,BB3 0AT,50.0,2,53.713007,-2.477909,2.498968998859217,
BB4 7LS,Kay Street,,,,,Kay Street,Rossendale,BB4 7LS,50.0,6,53.70174433333333,-2.2844276666666667,4.096842739930568,
BB5 1EW,Accrington Town Hall,,Town Hall,,Broadway,,Accrington,BB5 1EW,50.0,3,53.753189,-2.365649,3.441286422729218,
BB5 1LY,Saint James Street,,,,,Saint James Street,Accrington,BB5 1LY,50.0,2,53.752693,-2.366039,3.4482390601842035,
BB6 7AL,Morrisons Great Harwood,,Wm Morrison Supermarkets PLC,73,Queen Street,"Great Harwood, Blackburn,",Hyndburn,BB6 7AL,50.0,3,53.786809,-2.403115,3.345221761544929,
BB7 9SP,60-46 King Street,,,,,Whalley,Clitheroe,BB7 9SP,50.0,2,53.820751,-2.406547,3.8314938359378186,
BB9 7EJ,72 Manchester Road,,,,,72 Manchester Road,Nelson,BB9 7EJ,50.0,2,53.8354,-2.2174,3.6476102828202834,
BB9 9PS,NELSON 1,,Nelson Filling Station,,Netherfield Road,,Nelson,BB9 9PS,50.0,4,53.835419,-2.2109185,3.646730790661842,
BD1 1JA,Crown Court Car Park,,,,Crown Court Car Park,off Vicar Lane,Bradford,BD1 1JA,50.0,6,53.792218000000005,-1.7487255,3.6441174366865026,
BD1 3RA,Rawson Road,,Rawson Road,,,,Bradford,BD1 3RA,50.0,3,53.79784,-1.75752,4.242394994668874,
BD1 4RB,Peel Centre Shopping Park,,Peel Centre Shopping Park,,,Canal Road,Bradford,BD1 4RB,50.0,3,53.8051,-1.75423,4.248307806606506,
BD1 5AH,Vicar Lane,,,,,Vicar Lane,Bradford,BD1 5AH,50.0,3,53.791334,-1.748548,4.199776795422585,
BD1 5LD,"Vicar Lane, Bradford",,,,Vicar Lane,,Bradford,BD1 5LD,50.0,3,53.79135,-1.748623,3.9943049620928557,
BD10 9SX,Hitching Post Pub and Restaurant,,Hitching Post Pub,,,54 Leeds Rd,Bradford,BD10 9SX,50.0,3,53.83415,-1.71835,4.347114880332945,
BD12 0HQ,Sedbergh Leisure Centre,,Cleckheaton Road,,Cleckheaton Road,Low Moor,Bradford,BD12 0HQ,50.0,5,53.760481,-1.759713,3.9910103684340017,
BD12 9JF,Asda Wyke,,Asda Stores Ltd,,,"Town Gate, Wyke",Bradford,BD12 9JF,50.0,3,53.738239,-1.76863,4.99954213661764,
BD16 2AH,Lidl - Bingley,,,,,Thrift Way,Bingley,BD16 2AH,50.0,3,53.84661,-1.838378,3.896063974735766,
BD16 2NA,Wellington Road Car Park,,,,Wellington Road,,Bingley,BD16 2NA,50.0,3,53.848059,-1.836896,4.1459920361571285,
BD162NA,"Wellington Road, Bingley",,Airedale Hospital,,Wellington Street,,Bingley,BD162NA,50.0,6,53.871895,-1.900965,4.140652475567474,
BD18 3JW,Exhibition Road Car Park,,,,Exhibition Road,Shipley,Bradford,BD18 3JW,50.0,3,53.836469,-1.788719,3.6184238089794856,
BD18 3SX,"Saville Street, Shipley",,Saville Street Car Park,,,Shipley,Bradford,BD18 3SX,50.0,3,53.834332,-1.779449,4.391667322318615,
BD19 3QE,The Bobbin Carrier Pub & Restaurant,,The Bobbin Carrier,,,Centurion Way,Cleckheaton,BD19 3QE,50.0,6,53.735665,-1.7232055000000002,4.395149854778607,
BD19 3RN,St Johns CP,,St Johns Car Park,,Church Street,Cleckheaton,Kirklees,BD19 3RN,50.0,3,53.724306,-1.711452,0.9905419425596508,
BD20 9NB,Bridge Street Car park,,Bridge Street,,,Silsden,Bradford,BD20 9NB,50.0,3,53.915218,-1.938618,3.9995008688907796,
BD21 3JN,Keighley Leisure Centre,,,,Hard Ings Road,"Victoria Park, Keighley,",Bradford,BD21 3JN,50.0,3,53.873425,-1.901013,3.999521356991501,
BD21 5AE,Morrisons Keighley,,"Wm Morrison Supermarkets PLC,",Worth Way,Keighley,,Bradford,BD21 5AE,50.0,3,53.86332,-1.908206,3.997698214856202,
BD22 8DT,Museum Car park,,Bronte Parsonage Cottage,,,"8 Shirley Street, Haworth",Keighley,BD22 8DT,50.0,3,53.831772,-1.957602,4.290005767484565,
BD23 1ED,Skipton High Street Car Park,,Skipton High Street Car Park,,,Jerry Croft,Skipton,BD23 1ED,50.0,6,53.9623,-2.01436,3.871808038227296,
BD23 1RT,Morrisons Skipton Broughton Road,,Morrison Hartlepool,"Wm Morrison Supermarkets PLC,",Broughton Road,Skipton,Craven,BD23 1RT,50.0,3,53.95949,-2.023407,3.8713193586397883,
BD24 9JY,The Courtyard,,,,The Courtyard,A65,Settle,BD24 9JY,50.0,3,54.047965,-2.285781,3.869033633562393,
BD3 7HZ,Morrisons Bradford Thornbury,,Wm Morrison Supermarkets PLC,Rushton Avenue,,,Bradford,BD3 7HZ,50.0,3,53.801846,-1.712276,3.8666880505724492,
BD3 8EY,Orange Street Car Park,,,,Orange Street,,Bradford,BD3 8EY,50.0,3,53.79246,-1.723757,3.941067038194215,
BD4 7SJ,Starbucks Bradford,,,,Ring Road Service Station,,Bradford,BD4 7SJ,50.0,3,53.772142,-1.730694,3.32418112824246,
BD4 7SR,Asda Bradford,,Asda Stores Ltd,,,Rooley Lane,Bradford,BD4 7SR,50.0,3,53.771671,-1.733218,3.3282271214099843,
BD5 8HW,Cedar Court Bradford,,Cedar Court Hotel,,Mayo Avenue,Rooley Lane,Bradford,BD5 8HW,50.0,6,53.770554,-1.751224,3.3324302702574693,
BD5 8JR,SHELL RECHARGE ROOLEY LANE,,Shell Rooley Lane,,,Rooley Lane,Bradford,BD5 8JR,50.0,3,53.768619,-1.75287,3.3304252115483406,
BD5 8LB,Toby Carvery Bradford,,,,,244-246 Rooley Lane,Bradford,BD5 8LB,50.0,2,53.769028,-1.73779,4.323653721202702,
BD6 1TG,Wibsey Fairground Car Park,,,,Tennyson Road,,Bradford,BD6 1TG,50.0,3,53.766566,-1.7778,2.9993354025651238,
BD8 8BA,Manningham Sports Centre,,,,Carlisle Rd,Manningham,Bradford,BD8 8BA,50.0,3,53.804088,-1.774611,2.9927694115615684,
BD9 4RB,Victor Street Car Park,,,,Victor Street,Manningham,Bradford,BD9 4RB,50.0,3,53.808737,-1.776512,2.742741276902019,
BH1 1JD,Richmond Gardens Multi-Storey Car Park,,,,Richmond Hill Roundabout,Richmond Gardens,Bournemouth,BH1 1JD,50.0,7,50.72245233333333,-1.8767023333333333,4.148199169593416,
BH1 1QQ,"Bournemouth, Madeira Road Multi-Storey Car Pa",,,,"Bournemouth, Madeira Road Multi-Storey Car Park",,Bournemouth,BH1 1QQ,50.0,5,50.724512,-1.8692435,4.993755142908524,
BH1 3LT,"Bournemouth, Christchurch Road",,,6,Christchurch Road,,Bournemouth,BH1 3LT,50.0,3,50.72222,-1.864575,4.044362970503055,
BH10 7LN,"Kinson, Pound Lane Car Park",,,,"Kinson, Pound Lane Car Park",Pound Lane Car Park,Bournemouth,BH10 7LN,50.0,5,50.7696995,-1.90156,2.3332648277703307,
BH12 1AZ,"Westbourne, Seamoor Road",,,300,Poole Road,Seamoor Road,Poole,BH12 1AZ,50.0,5,50.723809,-1.90651,4.342808541078166,
BH12 5BB,Bournemouth University Visitors Car Park,,Bournemouth University,,Fern Barrow,Talbot Campus,Poole,BH12 5BB,50.0,7,50.742983333333335,-1.897937,3.9916188111117283,
BH14 9BN,Ashley Road,,,,,Ashley Road,Poole,BH14 9BN,50.0,2,50.728611,-1.93459,3.8954751604121185,
BH14 9BZ,Ashley Road,,,262,Ashley Road,,Poole,BH14 9BZ,50.0,3,50.728662,-1.933583,3.8944063586662137,
BH15 1SD,Old Orchard,,,17,Old Orchard,Old Orchard,Poole,BH15 1SD,50.0,5,50.713156,-1.985298,4.3980913935089525,
BH15 1UA,"Poole, Seldown Lane",,,,Seldown Lane,,Poole,BH15 1UA,50.0,3,50.71844,-1.97823,4.391495093405391,
BH15 1UG,Seldown Lane,,,,,Seldown Lane,Poole,BH15 1UG,50.0,2,50.718441,-1.97823,4.393662477018295,
BH15 2RU,Poole Civic Centre Surface Car Park,Civic Centre Surface Car Park,Poole Civic Centre Car Park,,Commercial Road,Civic Centre Surface Car Park,Poole,BH15 2RU,50.0,7,50.7230795,-1.96131725,2.911974482816275,
BH15 3EH,Toby Carvery Poole,,,,Fleets Corner,Wimborne Road,Poole,BH15 3EH,50.0,2,50.7384,-1.9863,2.912550263543355,
BH21 1AU,"Wimborne, Allenview West Car Park",,,44,Allenview Road,,Wimborne,BH21 1AU,50.0,5,50.802231500000005,-1.9847665,3.9412605425593217,
BH21 4DT,Queen Elizabeth\'s School,,,,,600 Blandford Road,Wimborne,BH21 4DT,50.0,4,50.8067205,-2.0036855,4.240591927789091,
BH22 0AB,Texaco West Moors,,,,Ringwood Road,,Ferndown,BH22 0AB,50.0,3,50.815396,-1.868862,3.990674739684435,
BH23 1QA,"Christchurch, Saxon Square Multi-Storey Car P",,,,"Christchurch, Saxon Square Multi-Storey Car Park",,Christchurch,BH23 1QA,50.0,5,50.735424,-1.7764515,4.193781982595157,
BH23 3PY,Meteor Shopping Park,,Meteor Shopping Park,,,"Unit 6, Sea Vixen Industrial Estate, Wilverley Rd,",Christchurch,BH23 3PY,50.0,6,50.74055,-1.74252,2.9941183013575285,
BH24 1AT,Furlong Car Park,,,,Furlong Car Park,The Furlong,Ringwood,BH24 1AT,50.0,7,50.84755266666667,-1.7932456666666667,3.8440690633220385,
BH5 1BY,"Boscombe, Hawkwood Road Car Park",,,,"Boscombe, Hawkwood Road Car Park",,Bournemouth,BH5 1BY,50.0,3,50.72646,-1.83689,4.691944849049707,
BH8 9UQ,THE COOPER DEAN,,,,,700 Castle Lane west,Bournemouth,BH8 9UQ,50.0,2,50.747952,-1.829284,3.2407571415260428,
BL2 6PY,Shell Meadow,,Meadow Lane Service Station,,Meadow Lane Service Station,"1041 Bury Road,",Bolton,BL2 6PY,50.0,6,53.579683,-2.380233,3.9143576592221896,
BL6 6DT,HORWICH 1,,Horwich Service Station,427,Chorley New Road,,Horwich,BL6 6DT,50.0,2,53.591524,-2.539052,4.246427843514538,
BL6 6JA,Middlebrook Retail & Leisure Park,,,,,37 The Linkway,Bolton,BL6 6JA,50.0,6,53.58365866666667,-2.5365626666666667,3.544865021970492,
BN1 5JD,Withdean Stadium Leisure Centre,,,,Withdean Stadium Leisure Centre,,Brighton,BN1 5JD,50.0,3,50.853,-0.15981,3.4924214847026818,
BN10 8JJ,BP Peacehaven,,,,180 South Coast Road,,Peacehaven,BN10 8JJ,50.0,3,50.791064,0.003009,4.29773758696904,
BN11 1JU,Morrisons Worthing,,Wm Morrison Supermarkets PLC,1 Newland Street,,,Worthing,BN11 1JU,50.0,3,50.818506,-0.370578,4.091660547685016,
BN14 9JN,Toby Carvery Worthing,,,,,Upper Brighton Road,Worthing,BN14 9JN,50.0,2,50.834461,-0.367408,3.9490197093693618,
BN17 5RA,Tesco Superstore - Littlehampton,,,,,Broadpiece,Littlehampton,BN17 5RA,50.0,6,50.816155,-0.558128,3.9464291189963188,
BN17 7LA,Morrisons Littlehampton - Wick,,Wm Morrisons Supermarkets PLC,,2 Lyminster Road,Wick,Littlehampton,BN17 7LA,50.0,3,50.820979,-0.543376,4.242624005043627,
BN18 0SB,SHELL RECHARGE LITTLE WAITROSE FONTWELL,,SHELL LITTLE WAITROSE FONTWEL,,,Arundel Road,Arundel,BN18 0SB,50.0,3,50.854564,-0.64726,4.245955749833453,
BN20 7HZ,Hydro Hotel Eastbourne,,,,,Mount Road,Eastbourne,BN20 7HZ,50.0,2,50.757835,0.277488,4.0447240937847315,
BN21 4JR,Devonshire Park Hotel,,,,,27-29 Carlisle Road,Eastbourne,BN21 4JR,50.0,2,50.762142,0.282831,4.2470301604611675,
BN23 6QL,Morrisons Eastbourne,,,,Lottbridge Drove,,Eastbourne,BN23 6QL,50.0,3,50.796861,0.285513,4.248549117762747,
BN23 8AS,Yeomans Nissan,,Bannatyne Health Club & Spa,5,Edward Road,5 Edward Road,Eastbourne,BN23 8AS,50.0,8,50.79988275,0.289726,4.243383312872422,
BN27 4JX,Herstmonceux Surgery,,Herstmonceux Surgery,,Herstmonceux Surgery,Hailsham Road,Hailsham,BN27 4JX,50.0,5,50.8874095,0.31832,4.241916259534504,
BN3 7BD,SHELL RECHARGE HOVE,,SHELL HOVE,,,132-134 Old Shoreham Road,Hove,BN3 7BD,50.0,2,50.838601,-0.175953,4.245139668654593,
BN43 5LD,The Longshore Pub & Restaurant,,The Longshore Pub & Restaurant,,,Brighton Rd,Shoreham-by-Sea,BN43 5LD,50.0,6,50.827677,-0.2887834999999999,4.246634474926348,
BN44 3TQ,BP Upper Beeding,,,,High Street,,Steyning,BN44 3TQ,50.0,3,50.880767,-0.300407,4.249807327031006,
BN7 2LD,Phoenix Causeway Car Park,,,,Phoenix Causeway Car Park,,Lewes,BN7 2LD,50.0,3,50.87493,0.01744,4.241991528247106,
BN8 5RB,Kings Academy Ringmer,,,,Lewes Road,Ringmer,Lewes,BN8 5RB,50.0,2,50.895943,0.067284,4.24511027170057,
BN8 6PH,Selmeston Petrol Station,,,,Selmeston Petrol Station,,Lewes,BN8 6PH,50.0,3,50.84024,0.13882,4.247702775868529,
BN9 9BH,Newhaven Town Centre Car Park,,,,Newhaven Town Centre Car Park,Lower Place Car Park,Newhaven,BN9 9BH,50.0,5,50.7947885,0.047696,4.244253447626395,
BR1 4JD,Bromley Court Hotel,,,,,Bromley Hill,Bromley,BR1 4JD,50.0,4,51.416605,0.002363,4.247798437075716,
BR1 4JX,Outside 24-26 Bromley Hill,,,,,Outside 24-26 Bromley Hill,Bromley,BR1 4JX,50.0,4,51.421112,-0.0015474999999999,4.241712593478811,
BR1 5AJ,Lidl - Bromley North,,,,,129 Burnt Ash Lane,Bromley North,BR1 5AJ,50.0,3,51.421333,0.020727,4.2467736614627745,
BR3 4RH,SHELL RECHARGE BECKENHAM,,SHELL BECKENHAM,,,128-136 Beckenham Road,Beckenham,BR3 4RH,50.0,3,51.409258,-0.041666,4.247045585622341,
BR4 0LP,29 West Wickham High Street,,,,,TLRN,London,BR4 0LP,50.0,2,51.3759,-0.015887,4.245427001428666,
BR4 0LS,97 West Wickham,,,,,High Street,Bromley,BR4 0LS,50.0,2,51.376774,-0.019622,4.243353077386676,
BR4 0LU,Shell - West Wickham,,,,High Street,,West Wickham,BR4 0LU,50.0,3,51.377129,-0.022431,4.241583212964709,
BR4 9HZ,37 Croydon Road (A232 Eastbound),,,,,"37 Croydon Road (A232 Eastbound), West Wickham",London,BR4 9HZ,50.0,3,51.370052,0.00062,4.242445266536166,
BR5 2QR,Texaco St Pauls Cray,,,,Chipperfield Road,,Orpington,BR5 2QR,50.0,3,51.405842,0.10455,4.246598283978309,
BS1 5UU,College Street,,College Street Car Park,St. Georges Road,St. Georges Road,College Street,Bristol,BS1 5UU,50.0,14,51.45194085714286,-2.6033957142857145,4.246259681448757,
BS1 6HY,Victoria Street,,Victoria Street,,Victoria Street,Victoria Street,Bristol,BS1 6HY,50.0,6,51.450722,-2.586599,4.247119492364489,
BS1 6PL,Temple Gate Car Park 2,,,,Chatterton Square,Temple Gate,Bristol,BS1 6PL,50.0,5,51.448175500000005,-2.584034,4.249692360786682,
BS10 5NB,Brunel Building MSCP,,,,Southmead Way,Southmead Hospital,Bristol,BS10 5NB,50.0,15,51.49679942857143,-2.593372571428572,4.249320500668163,
BS10 7TG,SHELL RECHARGE CRIBBS CAUSEWAY,,SHELL CRIBBS CAUSEWAY,,,Cribbs Causeway,Bristol,BS10 7TG,50.0,3,51.522339,-2.618872,4.249902458488436,
BS10 7TL,Miller & Carter Cribbs Causeway,,,,Cribbs Causeway,Patchway,Bristol,BS10 7TL,50.0,2,51.526199,-2.6143,4.243096927730736,
BS11 9QE,Portway Park & Ride,,Portway Park and Ride,A4,A4,A4,Bristol,BS11 9QE,50.0,17,51.49112649999999,-2.6889606250000004,4.2403834820968,
BS13 0BE,Morrisons Bristol Hartcliffe,,,,Wm Morrison Supermarkets PLC,Peterson Avenue,Hartcliffe,BS13 0BE,50.0,3,51.405461,-2.599077,4.24348723232475,
BS15 8JD,Lidl - Halls Road,,,,,Halls Road,Bristol,BS15 8JD,50.0,3,51.46184,-2.509464,4.249970325630059,
BS15 9LA,Longwell Green Leisure Centre,Aspects Leisure Park,Longwell Green Leisure Centre,,Aspects Leisure Park,Leisure Road,Bristol,BS15 9LA,50.0,5,51.448732,-2.500563,4.247399701126901,
BS16 3US,Morrisons Bristol Fishponds,,Wm Morrison Supermarkets PLC,690-718 Fishponds Road,Fishponds,"690-718 Fishponds Road, Fishponds",Bristol,BS16 3US,50.0,6,51.477985,-2.532846,4.243398119824733,
BS16 6NH,The Sandringham,,,,,Quaker's Road,Bristol,BS16 6NH,50.0,2,51.499195,-2.503604,4.243549844843959,
BS16 6UB,Huntsman Taverners Pub and Restaurant,,Huntsman Taverners Pub,,,Westerleigh Rd,Bristol,BS16 6UB,50.0,3,51.49408,-2.48866,4.242082251271822,
BS16 7FR,Bristol and Bath Science Park 1,,Bristol and Bath Science Park,,Dirac Crescent,Emersons Green,Bristol,BS16 7FR,50.0,23,51.500423375,-2.476729,4.24748352161854,
BS2 0SW,DTM Ltd (Bosch service place),,,,,Short Street Saint Philips,Bristol,BS2 0SW,50.0,2,51.448597,-2.570181,4.244434870190203,
BS2 9LU,SHELL RECHARGE BUDGENS BROADMEAD,,SHELL BUDGENS BROADMEAD,,,95 Newfoundland Road,Bristol,BS2 9LU,50.0,3,51.461423,-2.581415,4.2498271019010065,
BS20 7DB,Portishead Marina Rapid Charging Hub,,Portishead Marina Rapid Hub,,Station Road,Portishead,Bristol,BS20 7DB,50.0,6,51.486672,-2.76478,4.241416153305668,
BS20 7TN,The Priory,,,,Station Road,Portbury,Bristol,BS20 7TN,50.0,2,51.474899,-2.724,4.2420075818231755,
BS21 7TU,Shell Salthouse Clevedon,,,,Old Church Road,,Clevedon,BS21 7TU,50.0,3,51.434598,-2.864778,3.882366278765378,
BS22 6DB,Harvester Weston Gateway,,,,,Yew Tree Drive,Weston-super-Mare,BS22 6DB,50.0,2,51.352833,-2.908002,3.2948555337073184,
BS22 7XS,ICUEVEMINI900171_1,,,,,1 Brimbleworth Lane,Saint Georges,BS22 7XS,50.0,3,51.362274333333325,-2.898817,2.9119375406571333,
BS23 1UA,T53_2415_014_3,,,,,13 Carlton Street,Weston Super Mare,BS23 1UA,50.0,3,51.34500599999999,-2.978584,4.096601802775683,
BS24 8EE,Landing Light Pub & Restaurant,,Landing Light Pub & Restaurant,,Beaufighter Road,Beaufighter Rd,Weston-super-Mare,BS24 8EE,50.0,5,51.342428,-2.9336580000000003,2.7440784097135884,
BS3 1RN,SOUTHVILLE 1,,Southville Service Station,,A370,,Bristol,BS3 1RN,50.0,2,51.445625,-2.614842,4.999277863096108,
BS32 4QB,Toby Carvery Almondsbury,,,,Woodlands Lane,Bradley Stoke,Bristol,BS32 4QB,50.0,2,51.546803,-2.559432,2.9994864465878712,
BS32 4TD,Aztec West Business Park,,Aztec West Business Park,220,Aztec West,Park Avenue,Almondsbury,BS32 4TD,50.0,12,51.5426162,-2.5725082,2.9988276173993884,
BS32 9BA,Hollow Tree Pub & Restaurant,,Hollow Tree Pub & Restaurant,,,Brook Way,Bristol,BS32 9BA,50.0,3,51.5412,-2.55924,3.299337374971678,
BS32 9BS,Bradley Stoke Leisure Centre,,Bradley Stoke Leisure Centre,,,Fiddlers Wood Ln,Almondsbury,BS32 9BS,50.0,3,51.535657,-2.545928,3.374676135948378,
BS34 5BZ,Lidl - Patchway Bristol,,,,,Hayes Way,Bristol,BS34 5BZ,50.0,3,51.525482,-2.575285,3.3709339475192066,
BS34 5DG,The Mall at Cribbs Causeway,,,34,The Mall,"Cribbs Causeway, Regional Shopping Centre",Patchway,BS34 5DG,50.0,3,51.525866,-2.594204,3.665812886551345,
BS34 5TX,Cribbs Causeway Retail Park,,,,Lysander Road,Patchway,Bristol,BS34 5TX,50.0,5,51.525675500000006,-2.5973425,3.158951402742756,
BS35 3TA,Memorial Woodlands,,Memorial Woodlands,Memorial Woodlands,Earthcott Road,,Alveston,BS35 3TA,50.0,3,51.571359,-2.498436,3.157182315697442,
BS37 4AP,Yate Shopping Centre,,Yate Shopping Centre,,Yate Shopping Centre,"43 North Walk, Yate",Bristol,BS37 4AP,50.0,5,51.541444,-2.416278,4.249688403090899,
BS37 5PW,Morrisons Yate,,Morrisons Yate,Wm Morrison Supermarkets PLC,Station Road,Chipping Sodbury,Yate,BS37 5PW,50.0,3,51.541526,-2.417823,4.244234287874505,
BS4 5LR,Brislington Park & Ride 1,,,515-517,Stockwood Road,,Bristol,BS4 5LR,50.0,5,51.428096,-2.537584,3.7445486702501016,
BS40 5RB,Holiday Inn Bristol Airport,,,,A38 Bridgwater Road,Cowslip Green,Bristol,BS40 5RB,50.0,4,51.3549785,-2.7434325,3.743534454252896,
BS5 6QL,Eastville Park,,Eastville Park,Park Avenue,Eastville,,Bristol,BS5 6QL,50.0,3,51.474341,-2.550023,3.6968529497422313,
BS5 6XX,IKEA Bristol,,,,Eastgate Shopping Centre,Eastgate Road,Bristol,BS5 6XX,50.0,2,51.473057,-2.564405,2.9929875400458124,
BS5 9EN,Chalks Road Car Park,,Chalks Road Car Park,,Chalks Road,Chalks Road,Bristol,BS5 9EN,50.0,7,51.46025,-2.551503,3.7955577041617587,
BS6 6AG,BRISTOL 1,,Bannatyne Health Club & Spa,,80 Redland Road,,Bristol,BS6 6AG,50.0,4,51.4681705,-2.597064,4.191142776002982,
BS7 8TX,Shell Gloucester Road,,,,410 - 422 Gloucester Road,Horfield,Bristol,BS7 8TX,50.0,3,51.484723,-2.586768,4.249567827311943,
BS7 9QY,Lidl - Horfield,,,,,Muller Road,Bristol,BS7 9QY,50.0,3,51.482711,-2.579004,4.243894964412767,
BT12 6UA,Shane Retail Park,,Shane Retail Park,72,Boucher Road,,Belfast,BT12 6UA,50.0,3,54.572178,-5.970464,4.140410781810836,
BT15 9PW,"Shore Road, Belfast, Antrim",,EMO OIL Service Station,,Shore Road,,Belfast,BT15 9PW,50.0,3,54.630038,-5.922514,4.394242314776809,
BT27 5UJ,Sprucefield Shopping Centre,,Sprucefield Shopping Centre,,Off Lisburn-Hillsborough Road(A1&M1),,Hillsborough,BT27 5UJ,50.0,3,54.4921,-6.06013,3.8705666595821158,
BT3 9EJ,IKEA Belfast,,,306,Hollywood Exchange,Airport Road West,Belfast,BT3 9EJ,50.0,2,54.620469,-5.863781,4.245424480069281,
BT30 9HY,Bells Spar Saintfield Rd Crossgar,,Bell's Spar,7,Saintfield Road,,Downpatrick,BT30 9HY,50.0,2,54.404049,-5.76861,4.247673233258089,
BT32 4ET,Barbican Centra Service Station,,Barbican Centra A1 26 Halfway,15,Halfway Road,,Banbridge,BT32 4ET,50.0,4,54.36808,-6.218712,2.997572626625568,
BT35 6PW,Fiveways Shops & Service Station Newry,,,101,Armagh Road,,Newry,BT35 6PW,50.0,3,54.1917,-6.35143,2.997590269191548,
BT364RN,"Applegreen Templepatrick Services, M2 N/W-bound, Newtownabbey, Antrim",,Applegreen Templepatrick Servi,,M2,,Templepatrick,BT364RN,50.0,3,54.694836,-6.018496,2.9901837260425714,
BT40 1AY,"Topaz Service Station, Larne",,Topaz Filling Station,Unit 1A,Larne Business Pk,Redlands Rd,Larne,BT40 1AY,50.0,4,54.846012,-5.807106,3.9946206461191003,
BT41 4LQ,"Texaco Garage Junction 1, Antrim",,"Texaco Garage, Junction 1 Outl",,"A26,",,Antrim,BT41 4LQ,50.0,4,54.73022,-6.227475,3.491438956026113,
BT42 2BJ,"Phoenix Filling Station,Antrim Road, Bal",,Pheonix Filling Station,,Antrim Road,,Ballymena,BT42 2BJ,50.0,4,54.853932,-6.275528,4.210136074736206,
BT46 5JZ,Glenshane Tourist Services Ltd,,,,27 Fallagloon Road,,Maghera,BT46 5JZ,50.0,3,54.847389,-6.727441,4.211542586723721,
BT47 6BG,"Maxol Service Station, Waterside L'Derry",,Maxol Service Station,29,Glendermott Road,,Londonderry,BT47 6BG,50.0,3,54.995194,-7.306255,4.341720999377532,
BT56 8JE,"Portrush Service Station, Bushmills Rd",,Maxol Filling Station,185,Bushmills Road,BT56 8JE,Portrush,BT56 8JE,50.0,2,55.201482,-6.645468,4.04366301328191,
BT71 6PP,"Donnellys Garage, 57 Moy Road, Dungannon",,,,Moygashel Lane,,Dungannon,BT71 6PP,50.0,3,54.48691,-6.74451,4.045079946341971,
BT74 6DN,"Topaz Service Filling Station,Trory  Enn",,Trory Service Station,236,Irvinestown Rd,Trory,Enniskillen,BT74 6DN,50.0,4,54.385592,-7.639049,2.99863830233922,
BT78 5RA,"Mellon Country Inn, Omagh",,Mellon Country Hotel,147,Beltany Road,,Omagh,BT78 5RA,50.0,4,54.676914,-7.352932,2.9904178227939653,
BT8 7SW,Maxol Service Station,,Maxol Service Station,60,Milltown Road,,Belfast,BT8 7SW,50.0,2,54.54723,-5.938462,4.499648429760317,
CA1 2SB,Toby Carvery,,,,,491 Warwick Road,Carlisle,CA1 2SB,50.0,6,54.89635833333333,-2.8953593333333334,4.295350704245484,
CA10 3SS,Adventure Leisure Vehicles,,Tebay Business Park,,B6260,Old Tebay,Penrith,CA10 3SS,50.0,2,54.438335,-2.592215,4.496225111563368,
CA11 0DQ,WE Rheged Center,,,,"Westmorland, Rheged Centre",Redhills,Penrith,CA11 0DQ,50.0,6,54.647024,-2.781498,4.492492647502954,
CA11 7JU,Morrisons Penrith,,Wm Morrison Supermarkets PLC,,Brunswick Road,,Penrith,CA11 7JU,50.0,3,54.663616,-2.756512,4.543059327763076,
CA12 5DF,Central Carpark Keswick,,Central Car Park,,Central Car Park Road,,Allerdale,CA12 5DF,50.0,3,54.600512,-3.138042,4.348963006413138,
CA14 3YJ,Allerdale House,,Allerdale House,Allerdale House,Griffin Street,,Allerdale,CA14 3YJ,50.0,5,54.646921,-3.550744,4.34174671751928,
CA17 4HA,Christian Head Car Park,,Christian Head Car Park,,Christian Head,,Eden,CA17 4HA,50.0,3,54.47455,-2.351774,4.342879720851253,
CA28 7ES,Senhouse St Car Park Whitehaven,,Senhouse St. Car Park,,Senhouse Street,,Copeland,CA28 7ES,50.0,3,54.550044,-3.586819,3.441807906344485,
CA28 7RW,	Morrisons Whitehaven,,Wm Morrison Supermarkets PLC,,Flatt Walks,Whitehaven,Copeland,CA28 7RW,50.0,3,54.545588,-3.585531,0.998318003003858,
CA3 8QG,Lowther Street,,Cumbria County Council,,Lowther Street,,Carlisle,CA3 8QG,50.0,5,54.896932,-2.933844,4.498243594767716,
CB11 3EG,Lord Butler Leisure Centre,Lord Butler Leisure Centre,,66,Peaslands Road,Peaslands Road,Saffron Walden,CB11 3EG,50.0,5,52.0150605,0.252465,4.149159304424565,
CB11 4QT,The Cricketers,,,,Wicken Road,Clavering,Saffron Walden,CB11 4QT,50.0,2,51.972858,0.156033,3.999660850089431,
CB23 6BW,MK21019,,,,,"Cambridge Belfry Hotel, Back Lane, Cambourne",Cambridge,CB23 6BW,50.0,3,52.2206,-0.06854,3.9972347809259876,
CB23 6EF,MK21018,,,,,"Elms BMW, 4 Sheepfold Ln, Cambridge",Cambridge,CB23 6EF,50.0,3,52.2241,-0.0745,3.996813778220813,
CB23 6EY,Morrisons Cambourne,,Wm Morrison Supermarkets PLC,,Broad Street,Great Cambourne,Cambridge,CB23 6EY,50.0,3,52.220103,-0.067224,2.7441775341463264,
CB6 2SH,HIVE 1,,Hive Leisure Centre,,A10,,Ely,CB6 2SH,50.0,4,52.406944,0.2467794999999999,2.74572610191789,
CF10 3BZ,Windsor Place,,Windsor Place,,,11-19 Plas Windsor,Cardiff,CF10 3BZ,50.0,4,51.48388,-3.17324,4.193263889365687,
CF10 3NB,King Edward VII Avenue,,King Edward VII Avenue,,,32-30 King Edward VII Avenue,Cardiff,CF10 3NB,50.0,4,51.48844,-3.18373,3.6610820925509735,
CF10 4PH,Q-Park Cardiff Bay Pierhead Street,,,,,Q-Park Cardiff Bay Pierhead Street,Cardiff,CF10 4PH,50.0,2,51.465801,-3.1625,4.2444989186384765,
CF10 5AN,Bute Crecent,,Bute Crecent,,,Bute Crescent,Cardiff,CF10 5AN,50.0,4,51.4643,-3.16499,4.141998907666945,
CF11 0JR,IKEA Cardiff,,,,Ferry Road,,Cardiff,CF11 0JR,50.0,2,51.462816,-3.188446,3.494598584630279,
CF11 8AF,Texaco Ninian,,,,Sloper Road,,Cardiff,CF11 8AF,50.0,3,51.4696,-3.19572,3.892049870446916,
CF14 5DU,CARDIFF 1,,Bannatyne Health Club & Spa,,Parc Ty Glas,,Llanishen,CF14 5DU,50.0,4,51.5242175,-3.19183,3.1479790242113324,
CF24 0DE,Howard Place,,Howard Place,,,Howard Place,Cardiff,CF24 0DE,50.0,4,51.484,-3.16633,3.9901761291913798,
CF48 1DH,King Brychan Pub & Restaurant,,King Brychan Pub & Restaurant,,,Rhydycar Leisure Park,Merthyr Tydfil,CF48 1DH,50.0,3,51.73789,-3.37835,3.999388978773693,
CF62 3BT,Holiday Inn Express Cardiff Airport Port Road,,,,,Rhoose,Cardiff,CF62 3BT,50.0,4,51.3978065,-3.332916,3.994785294831293,
CF64 4BA,WATERFRONT 1,,Waterfront Retail Park,,Waterfront Retail Park,,Barry,CF64 4BA,50.0,4,51.4010965,-3.2688845,3.9935150108093787,
CF83 1NU,Morrisons Caerphilly,,Wm Morrison Supermarkets PLC,,Cwrt-y-Castell,,Caerphilly,CF83 1NU,50.0,3,51.57727,-3.215604,4.246390536527564,
CF83 2AX,Red Kite Pub & Restaurant,,Red Kite Pub & Restaurant,,,Nantgarw Rd,Caerphilly,CF83 2AX,50.0,3,51.57125,-3.24406,2.6955928408500798,
CH1 2LY,Holiday Inn Express Chester Racecourse,,,,,New Crane Street,Chester,CH1 2LY,50.0,2,53.189819,-2.899691,2.7958863352056857,
CH4 8RU,Morrisons Saltney,,Wm Morrison Supermarkets PLC,,High St,Saltney,Chester,CH4 8RU,50.0,3,53.177537,-2.935116,3.492802158780565,
CH41 0AB,LAIRD STREET 1,,Laird Street Service Station,,269 Laird Street,,Birkenhead,CH41 0AB,50.0,4,53.400735,-3.055359,2.240871242820373,
CH47 1HE,Holiday Inn Express Hoylake,,,,,The Kings Gap,Hoylake,CH47 1HE,50.0,2,53.391232,-3.182109,3.9990928798502132,
CH48 0QA,Morrisons West Kirby,,Dee Lane,,,Dee Lane,West Kirby,CH48 0QA,50.0,3,53.372082,-3.187291,3.8916661432267747,
CH5 3DT,Running Hare Pub & Restaurant,,Running Hare Pub & Restaurant,,,St Davids Park,Deeside,CH5 3DT,50.0,3,53.18997,-3.05108,2.9988284967509644,
CH65 6RX,Morrisosn   Ellesmere Port,,Wm Morrison Supermarkets PLC,,65 Chester Rd,Whitby,Ellesmere Port,CH65 6RX,50.0,3,53.272805,-2.911777,3.349654376955469,
CH654FW,Boat Museum,,The Boat Museum,,,South Pier Road,Ellesmere Port,CH654FW,50.0,6,53.287571,-2.891937,3.3486261049463035,
CH66 1QF,THORNTON 1,,Thornton Garage,,Chester Road,,Childer Thornton,CH66 1QF,50.0,4,53.2920425,-2.9524325,3.597639716035412,
CH66 2PY,BP Strawberry,,,,Strawberry Garage,,Ellesmere Port,CH66 2PY,50.0,3,53.256945,-2.909546,3.59936007161545,
CH7 6RG,Beaufort Park Hotel,,,,,New Brighton,Mold,CH7 6RG,50.0,2,53.181515,-3.117729,3.5932402316596477,
CH8 8RF,EG Singing Kettle,,,,St Asaph Road,,Holywell,CH8 8RF,50.0,3,53.273686,-3.305466,3.5957304741332106,
CM1 1TD,Fairfield Road Car Park,,,,Chelmsford City Council,Coval Lane,Chelmsford,CM1 1TD,50.0,2,51.73576,0.464825,4.444261873530784,
CM1 4UX,Morrisons Chelmsford,,,,Wm Morrison Supermarkets PLC,Dickens Place,Chelmsford,CM1 4UX,50.0,3,51.754693,0.446489,4.448596561262917,
CM13 3JP,De Rougemont Manor,,,,Great Warley Street,Great Warley,Brentwood,CM13 3JP,50.0,2,51.589249,0.288655,4.498558347441985,
CM15 8AY,Brentwood Town Hall,,Brentwood Town Hall,,,Town Hall,Brentwood,CM15 8AY,50.0,3,51.6188,0.30725,3.9953552210986065,
CM16 6ED,BASSETT 1,,Bassett Service Station,215,High Road,North Weald,Bassett,CM16 6ED,50.0,4,51.720993,0.1782905,3.991628780936409,
CM16 7HR,19 Station Approach,,,,,Theydon Bois,Epping,CM16 7HR,50.0,2,51.671658,0.102741,4.162855754803101,
CM18 1EP,Lidl - Witham,,,,,Bridge Street,Essex,CM18 1EP,50.0,3,51.796874,0.634175,4.165391306833013,
CM2 0LD,Moulsham Street Car Park,,,,,157 Moulsham Street,Chelmsford,CM2 0LD,50.0,2,51.728275,0.468474,4.142699148591382,
CM2 0WP,Meadows Surface Car Park,,,,,7 Can Bridge Way,Chelmsford,CM2 0WP,50.0,2,51.731209,0.477467,4.2453876577753205,
CM2 6AD,Toby Carvery Chelmsford,,,,,Dukes Lane,Chelmsford,CM2 6AD,50.0,2,51.740257,0.4986,3.1911194327279007,
CM2 7PJ,Baddow Road Long Stay Surface Car Park,,,,,Baddow Road,Chelmsford,CM2 7PJ,50.0,2,51.729591,0.47834,4.146461354932291,
CM7 1RB,Braintree District Council,George Yard Car Park,,36,George Yard Car Park,Pierrefitte Way,Braintree,CM7 1RB,50.0,5,51.878469,0.549407,4.343263529879696,
CM7 2YN,BRAINTREE 1,,Bannatyne Health Club & Spa,,Springwood Drive,,Braintree,CM7 2YN,50.0,4,51.88884,0.538262,4.349092840246989,
CM8 3HB,EG Riven Hall Starbucks,,,,A12 Southbound,Rivenhall End,Witham,CM8 3HB,50.0,3,51.81827,0.670252,4.3498155723079455,
CM9 4LQ,Lidl - Maldon,,,,,Station Road,Maldon,CM9 4LQ,50.0,3,51.735407,0.680131,4.244178855070409,
CO1 2GN,Glyn Hopkin Colchester,,Glyn Hopkins Colchester,,,Wimpole Road,Colchester,CO1 2GN,50.0,3,51.884347000000005,0.9139715,4.49644613340781,
CO10 2QS,BARRETT LEE 1,,Barrett Lee Filling Station,144,Waldingfield Road,,Sudbury,CO10 2QS,50.0,2,52.046765,0.744969,3.832431364305683,
CO16 0JD,Lifehouse,,,,,Frinton Road,Thorpe-le-Soken,CO16 0JD,50.0,4,51.8518505,1.1705005000000002,3.832507406781439,
CO2 0HS,COLCHESTER 1,,Bannatyne Health Club & Spa,,Layer Road,,Colchester,CO2 0HS,50.0,4,51.859453,0.8650795,3.8318627547789865,
CO4 5UP,Weston Homes Colchester Football Stadium,The Weston Homes Community Sta,,,,United Way,Colchester,CO4 5UP,50.0,3,51.923322,0.896991,3.826592843164696,
CO4 5XY,BP,,,,Cuckoo Farm Way,Mile End,Colchester,CO4 5XY,50.0,4,51.925587,0.898776,3.8251900151705684,
CO7 6AX,Holiday Inn Express Colchester,,,,,Birchwood Road,Colchester,CO7 6AX,50.0,2,51.942368,0.956565,4.747983438854157,
CR0 0LA,Lidl - New Addington,,,,,Parkway,New Addington,CR0 0LA,50.0,3,51.34662,-0.020213,4.6599961742199,
CR0 4NZ,Morrisons Croydon,,,,Wm Morrison Supermarkets PLC,,Croydon,CR0 4NZ,50.0,3,51.364659,-0.119452,4.099882275305474,
CR0 4UZ,Ikea Croydon,,IKEA,2,Hesterman Way,Valley Park,Croydon,CR0 4UZ,50.0,7,51.38046599999999,-0.1237983333333333,2.663186900196926,
CR0 8BF,150 Wickham Road,,,,,Croydon,London,CR0 8BF,50.0,2,51.374359,-0.050718,3.49851256626074,
CR2 9LE,SHELL RECHARGE SANDERSTEAD,,SHELL SANDERSTEAD,,,81 Limpsfield Road,Sanderstead,CR2 9LE,50.0,3,51.332354,-0.075478,1.4991096869456333,
CR3 0BB,UKALLEGO000100,,SHELL LITTLE WAITROSE WHYTELE,408,Godstone Road,408 Godstone Road,WHYTELEAFE,CR3 0BB,50.0,6,51.304248,-0.077098,2.49451354066069,
CR4 2AD,Lidl - Mitcham,,,,,Streatham Road,London,CR4 2AD,50.0,3,51.4114,-0.1578,4.042693736968579,
CR4 3ED,Lidl - Mitcham Town Centre,,,,,9-17 Western Road,Mitcham,CR4 3ED,50.0,3,51.406137,-0.166461,4.146907426189244,
CR5 1EN,SHELL RECHARGE OLD COULSDON,,SHELL OLD COULSDON,,,215 Coulsdon Road,Old Coulsdon,CR5 1EN,50.0,3,51.300137,-0.116675,3.1402493763805355,
CR7 6AW,797 London Road (Northbound),,,,,"797 London Road (Northbound), After Thornton Heath Pond Roundabout",Croydon,CR7 6AW,50.0,3,51.395458,-0.114942,4.297653972334518,
CR7 6BB,"114 Thornton Road,Thornton Heath",,,,,"114 Thornton Road, Thornton Heath",Croydon,CR7 6BB,50.0,9,51.39048433333334,-0.1203033333333333,3.6931732000036996,
CR7 6JL,London Road Croydon,,,,,London Road Croydon,Croydon,CR7 6JL,50.0,2,51.398074,-0.116437,4.147829687057246,
CR8 2LE,Russell Hill Road,,,,,Russell Hill Road,Croydon,CR8 2LE,50.0,3,51.339416,-0.117572,3.845609156040794,
CR8 4DB,"116 Brighton Road, Purley",,,,,"116 Brighton Road, Purley",Croydon,CR8 4DB,50.0,3,51.332135,-0.12429,3.8477709238147244,
CR8 5AA,"72-74 Godstone Road, Kenley",,,,,"72-74 Godstone Road, Kenley",Croydon,CR8 5AA,50.0,3,51.325761,-0.100274,3.8454788396563298,
CR8 5BG,"302 Godstone Rd, Kenley",,,,,"302 Godstone Rd Kenley, Kenley",Croydon,CR8 5BG,50.0,3,51.320621,-0.089501,3.84620919067714,
CR8 5EU,Wattenden Arms,,,,,Old Lodge Lane,Kenley,CR8 5EU,50.0,2,51.307667,-0.102645,3.8483178954789152,
CR8 5JE,"40 Godstone Road, Kenley",,,,,"40 Godstone Road, Kenley",Croydon,CR8 5JE,50.0,3,51.328179,-0.106276,2.99216895035536,
CT10 2NR,BROADSTAIRS 1,,Bannatyne Health Club & Spa,175,Westwood Road,,Broadstairs,CT10 2NR,50.0,4,51.3606595,1.3993835,3.8683429577306985,
CT10 2QD,The Canterbury Bell Pub & Restaurant,,The Canterbury Bell,,,Davenport House,Broadstairs,CT10 2QD,50.0,3,51.36037,1.39663,3.991274593826103,
CT13 9FF,Discovery Park,,,,Innovation House,Innovation Way,Sandwich,CT13 9FF,150.0,7,51.287175000000005,1.3397415,3.9975782194891485,
CT13 9NJ,Sandwich Discovery Park,,,,Discovery Park,Ramsgate Road,Sandwich,CT13 9NJ,50.0,3,51.28683,1.3459,4.591777245388746,
CT16 3FH,Lidl - Dover,,,,,Honeywood Parkway,Dover,CT16 3FH,50.0,3,51.151736,1.306429,3.999010294654773,
CT18 8AP,EuroTunnel,,,,Ashford Road,,Folkestone,CT18 8AP,50.0,6,51.091723,1.120238,3.9914447457267106,
CT19 4DP,Shell - Folkestone,,,336,Cheriton Road,,Folkestone,CT19 4DP,50.0,3,51.08703,1.149502,3.3516287615948674,
CT19 4RH,FOLKESTONE 1,,Bannatyne Health Club & Spa,,52 Shearway Road,,Folkestone,CT19 4RH,50.0,4,51.0943405,1.1525150000000002,3.353809529043354,
CT2 9HX,Holiday Inn Express Canterbury,,,,,Upper Harbledown,Canterbury,CT2 9HX,50.0,2,51.287689,1.01236,3.356357515352509,
CT5 3JE,The Oyster Bed Pub & Restaurant,,The Oyster Bed Pub,,,Thanet Way,Whistable,CT5 3JE,50.0,3,51.35964,1.06229,3.3492878303241507,
CT6 8NZ,Lidl - Herne Bay,,,,,Thanet Way,Herne Bay,CT6 8NZ,50.0,3,51.363168,1.107976,4.493922226632684,
CT7 9TZ,Shell - Birchington,,,,Seaview Service Station,361Canterbury Road,Birchington,CT7 9TZ,50.0,3,51.368838,1.299639,3.4995477582861567,
CV1 1JD,"Hales Street, Coventry",,,,Hales Street,,Coventry,CV1 1JD,50.0,3,52.410553,-1.510195,4.244848576827022,
CV1 2FZ,Manor Road,,,,,Manor Road,Coventry,CV1 2FZ,50.0,3,52.402002,-1.511765,4.240911863782656,
CV1 2GW,Salt Lane Carpark,,,,,"Salt Lane Carpark, Salt Lane",Coventry,CV1 2GW,50.0,3,52.406704,-1.510266,4.2975019609262715,
CV1 3AX,Lower Holyhead Road,,,,,1 Lower Holyhead Road,Coventry,CV1 3AX,50.0,3,52.408594,-1.516461,4.292821930943796,
CV1 3AZ,Croft Road Coventry,,,2,Croft Road,Croft Road,Coventry,CV1 3AZ,50.0,7,52.40677933333333,-1.516507,4.294431483034177,
CV1 3HX,Queen Victoria Road,,,,,Queen Victoria Road,Coventry,CV1 3HX,50.0,6,52.406007,-1.515772,4.240285614461206,
CV1 3RY,2 Greyfriars Road,,,,,2 Greyfriars Road,Coventry,CV1 3RY,50.0,6,52.405368,-1.515498,4.24406611920019,
CV1 5EA,Binley Road (Car Park),,,,,Binley Road (Car Park),Coventry,CV1 5EA,50.0,6,52.408275,-1.492112,4.492159525543459,
CV1 5QD,Lower Ford Street,,,,,"Lower Ford Street, Coventry",Coventry,CV1 5QD,50.0,3,52.410334,-1.502293,4.494533452878082,
CV1 5WT,Cox Street,,,,,"Cox Street, Coventry",Coventry,CV1 5WT,50.0,6,52.412034,-1.503693,4.247186424477642,
CV10 7DP,GLENDALE 1,,Glendale Service Station,234,Croft Road,,Nuneaton,CV10 7DP,50.0,4,52.5174685,-1.4903315,2.8321044455607582,
CV10 7PJ,Griffin Pub & Restaurant,,Griffin Pub & Restaurant,,,Griff,Nuneaton,CV10 7PJ,50.0,3,52.49395,-1.4729,3.42623885699535,
CV10 7SD,Holiday Inn Nuneaton,,,,,The Bermuda Park,Nuneaton,CV10 7SD,50.0,2,52.496944,-1.47655,3.2460201700877565,
CV11 6LS,Shell Weddington,,,118,Hinckley Road,,Nuneaton,CV11 6LS,50.0,3,52.52902,-1.448024,3.4944414703624775,
CV12 0BN,BEDWORTH,,Bedworth Service Station,,Heath Road,,Bedworth,CV12 0BN,50.0,2,52.471608,-1.493293,2.9952383802436344,
CV2 2HP,Holiday Inn Coventry M6,,,,Jct2,Hinckley Road,Coventry,CV2 2HP,50.0,2,52.43082,-1.43492,2.9913834999622813,
CV2 2TS,Tesco Superstore - Coventry Walsgrave,,,,,Clifford Bridge Road,Coventry,CV2 2TS,50.0,6,52.413625,-1.441816,2.9967796311227084,
CV2 4LH,"48-62 Clay Lane, Long Stay Car Park",,,,,"48-62 Clay Lane, Long Stay Car Park",Coventry,CV2 4LH,50.0,9,52.41167099999999,-1.4823639999999998,4.441330828465786,
CV3 1AA,26 Stoke Green (Opp. Tick-tock Park),,,,,"26 Stoke Green (Opposite Tick-tock Park), Binley Road",Coventry,CV3 1AA,50.0,6,52.405968,-1.4833,4.542723483277886,
CV3 1HZ,"Binley Road,(Opp. No. 12)",,,,,Binley Road (Opposite No. 12),Coventry,CV3 1HZ,50.0,3,52.407818,-1.491474,4.54990608989616,
CV3 2XA,Morrisons Binley,,Morrisons Binley,,Wm Morrison Supermarkets PLC,"Skipworth Road, Binley",Coventry,CV3 2XA,50.0,3,52.397792,-1.436643,2.8258284341149644,
CV3 5LG,Cecily Road,,,,,Cecily Road,Coventry,CV3 5LG,50.0,9,52.39351,-1.504493,3.398586373553289,
CV31 3NT,Morrisons Leamington Spa,,Morrisons,,Morrisons,Old warwick Road,Leamington Spa,CV31 3NT,50.0,6,52.283165,-1.5439355,3.399380235630351,
CV34 6HN,Warwick Race course,,,,,Hampton Street,Warwick,CV34 6HN,50.0,2,52.278778,-1.596351,3.399191364800563,
CV34 6RH,Arbury Nissan Leamington Spa 1,,,,,Tachbrook Park Drive,Warwick,CV34 6RH,50.0,3,52.2768475,-1.5465345,3.99257898851294,
CV35 7QT,The Warwickshire Golf & Country Club,,,,,Leek Wooton,Warwick,CV35 7QT,50.0,4,52.312662,-1.5796025,3.9995114205959332,
CV37 6YR,Crowne Plaza Stratford Upon Avon,,,,,Bridge Foot,Stratford upon Avon,CV37 6YR,50.0,4,52.193541,-1.7006875,4.494908591277994,
CV37 7LP,SHELL RECHARGE LITTLE WAITROSE BRIDGETOWN,,SHELL LITTLE WAITROSE BRIDGET,,,Shipston Road,Stratford-Upon-Avon,CV37 7LP,50.0,2,52.187594,-1.69831,4.292508371276313,
CV37 8BU,Ettington Park Hotel,,,,,Warwick Road,Stratford-upon-Avon,CV37 8BU,50.0,2,52.12397,-1.64076,4.993476363561351,
CV37 9DA,Morrisons Stratford Upon Avon,,Wm Morrison Supermarkets Plc,,,Alcester Road,Stratford-Upon-Avon,CV37 9DA,50.0,3,52.195068,-1.717739,4.297679489344992,
CV37 9JJ,Texaco Tollhouse,,,,Alcester Road,,Stratford-upon-Avon,CV37 9JJ,50.0,3,52.1964,-1.74253,3.7440529609474122,
CV37 9QX,WILDMOOR 1,,Bannatyne Health Club & Spa,,294 Alcester Rd,,Stratford-upon-Avon,CV37 9QX,50.0,4,52.2004235,-1.7531825,3.7447734423847674,
CV4 7EH,Cannon Park Shopping Centre,,,,,"Cannon Park Shopping Centre, De Montfort way, Canley",Coventry,CV4 7EH,50.0,6,52.386835,-1.554197,3.743203506905955,
CV47 0FG,Tesco Superstore - Southam,,,,,Northfield Road,Southam,CV47 0FG,50.0,6,52.248256,-1.400682,3.7456415406986547,
CV47 2BJ,SHELL RECHARGE BUDGENS SOUTHAM,,SHELL BUDGENS SOUTHAM,,,Banbury Road,Leamington Spa,CV47 2BJ,50.0,3,52.24469,-1.392333,3.74692287846084,
CV5 8HJ,New Spires Pub & Restaurant,,New Spires Pub & Restaurant,,,Grayswood Avenue,Coventry,CV5 8HJ,50.0,3,52.41275,-1.54801,3.1986030008802864,
CV5 8HU,487-489 Holyhead Road,,,,,487-489 Holyhead Road,Coventry,CV5 8HU,50.0,3,52.417739,-1.544734,3.3290844338940584,
CV6 1HQ,16-4 Crampers Field,,,,,"16-4 Crampers Field Coventry, CV6 1HQ, United Kingdom",Coventry,CV6 1HQ,50.0,6,52.417539,-1.525894,3.8911112613615764,
CV6 3DF,Jubilee Crescent (outside Asda),,,,,"Jubilee Crescent (outside Asda), Radford, Coventry, CV6 3DF, United Kingdom",Radford,CV6 3DF,50.0,3,52.430436,-1.517957,2.847314791689529,
CV6 4BY,341 Holbrook Lane,,,,,341 Holbrook Lane,Coventry,CV6 4BY,50.0,9,52.44132833333333,-1.5084503333333332,3.1453319601676735,
CV6 5BP,125-153 Lockhurst Lane,,,,,125-153 Lockhurst Lane,Coventry,CV6 5BP,50.0,6,52.429004,-1.502871,3.147158783332807,
CV6 5EP,14 Red Lane,,,,,14 Red Lane,Coventry,CV6 5EP,50.0,3,52.42076,-1.496343,4.243839677722362,
CV6 5JR,Foleshill Road (Opp. 625),,,,,Foleshill Road (Opposite 625),Coventry,CV6 5JR,50.0,6,52.43153,-1.497343,3.9960144539323617,
CV8 1ED,Holiday Inn Kenilworth,,,,,212 Abbey End,Kenilworth,CV8 1ED,50.0,2,52.344318,-1.58079,4.192440094134394,
CV8 2LD,Chesford Grange Q Hotel,,,,,,Kenilworth,CV8 2LD,50.0,2,52.323743,-1.559624,4.194350617721237,
CW1 3AS,DUNWOODY 1,,KFC CREWE,,159 Richard Moon Street,,Crewe,CW1 3AS,50.0,2,53.099331,-2.455524,2.9953921863668547,
CW1 3AW,Morrisons Crewe,,Wm Morrison Supermarkets PLC,,Dunwoody Way,,Crewe,CW1 3AW,50.0,3,53.099225,-2.454377,2.992581016654024,
CW1 5DU,Manchester Metropolitan University -,,Cheshire Campus,,,Crewe Green Road,Crewe,CW1 5DU,50.0,6,53.09288,-2.42295,2.9902887669142153,
CW1 5NW,CREWE 1,,Bannatyne Health Club & Spa,,Flour Mill Way,,Crewe,CW1 5NW,50.0,4,53.093389,-2.4174945,2.997703688289506,
CW1 6DR,Holiday Inn Express Crewe,,,,,Macon Way,Crewe,CW1 6DR,50.0,2,53.091732,-2.430318,0.9923989101970643,
CW11 4SP,Co-op Petrol,,,,,Saxon Cross,Sandbach,CW11 4SP,50.0,4,53.151939,-2.3483595,2.9968529552674568,
CW12 1DF,Princess Street Cark Park,,,,Princess Street,,Congleton,CW12 1DF,50.0,6,53.165015,-2.2131135,3.494160035204088,
CW12 1LR,Tesco Superstore - Congleton,,,,,Barn Road,Congleton,CW12 1LR,50.0,6,53.168494,-2.218064,3.7410398130774905,
CW2 5PS,SHELL RECHARGE BARTHOMLEY,,SHELL BARTHOMLEY,,,A500 / M6,Crewe,CW2 5PS,50.0,3,53.069546,-2.336624,3.746190901001256,
CW2 6DN,Best Western Crewe Arms Hotel,,,,,Nantwich Road,Crewe,CW2 6DN,50.0,2,53.090355,-2.431975,2.9911358603263456,
CW5 5BH,Love Lane Car Park,,,,Love Lane,,Nantwich,CW5 5BH,50.0,6,53.064825,-2.522028,4.248925903522427,
CW5 5SP,Morrisons Nantwich,,Wm Morrison Supermarkets Plc,,,Station Road,Nantwich,CW5 5SP,50.0,3,53.065109,-2.517791,4.247622127077105,
CW9 7QD,Watermead Pub & Restaurant,,Watermead Pub & Restaurant,,,471 Manchester Road,Northwich,CW9 7QD,50.0,3,53.27202,-2.45463,4.994915392434056,
DA1 2AU,Westgate Car Park Kent Road,,,,,Westgate Car Park Kent Road,Dartford,DA1 2AU,50.0,4,51.44599,0.21521,4.246546935749735,
DA1 2DF,Westgate Car Park,,,,Westgate Car Park,,Dartford,DA1 2DF,50.0,3,51.44541,0.21523,4.248816510747859,
DA12 2RQ,BP - Clocktower - Gravesend,,,,Clock Tower Service Station,133-139 Milton Road,Gravesend,DA12 2RQ,50.0,3,51.441351,0.37444,4.449365994196109,
DA12 5UQ,George Gravesend A2 Singlewell,,,,,Hever Road,Gravesend,DA12 5UQ,50.0,2,51.410938,0.378301,4.443929600607994,
DA14 5BN,Tesco Superstore - Sidcup,,,,,Edgington Way,Sidcup,DA14 5BN,50.0,6,51.413162,0.123074,4.447277826806469,
DA15 9NT,SHELL RECHARGE BLENDON LITTLE WAITROSE,,SHELL BLENDON LITTLE WAITROSE,,,510 Blackfen Road,Sidcup,DA15 9NT,50.0,3,51.447978,0.115813,3.720182196685334,
DA16 1QL,Morrisons Welling,,Wm Morrison Supermarkets PLC,,Springfield Road,,Welling,DA16 1QL,50.0,3,51.462963,0.109653,3.9904790523063167,
DA16 3HF,Lidl - Welling,,,,,46-60 Upper Wickham Lane,London,DA16 3HF,50.0,3,51.464308,0.108495,3.9400405948271544,
DA16 3QS,SHELL RECHARGE BUDGENS BELLEGROVE,,SHELL BUDGENS BELLEGROVE,,,147-173 Bellegrove Road,Welling,DA16 3QS,50.0,2,51.463461,0.100433,3.947420846216166,
DA17 6LD,Starbucks Belvedere,,,,,Clydesdale Way,Belvedere,DA17 6LD,50.0,4,51.49704,0.1546795,3.99864551250412,
DA2 6NQ,Miller and Carter,,,,Dartford Bridge,Princes Road,Dartford,DA2 6NQ,50.0,2,51.437531,0.24081,3.682830059653235,
DA3 8NQ,Brandshatch Place Hotel & Spa,,,,Brands Hatch Rd,Gallows Wood,Longfield,DA3 8NQ,50.0,2,51.360764,0.27113,3.6802528303711974,
DA5 1ND,Holiday Inn Bexley,,,,Black Prince Interchange,Southwold Road,Bexley,DA5 1ND,50.0,2,51.446026,0.153468,3.6788775684448725,
DA6 7LN,Lidl - Bexleyheath,,,,,10-12 & 20 Broadway,London,DA6 7LN,50.0,7,51.45587133333333,0.152152,4.249572555269309,
DA7 5AH,Shell Bexleyheath,,,,Long Lane,,Bexleyheath,DA7 5AH,50.0,3,51.465701,0.14732,3.7439032931668326,
DA8 3RF,Shell Erith,,,,Northend Rd,,Erith,DA8 3RF,175.0,8,51.466354,0.181778,3.492419947423543,
DD1 4QB,Greenmarket Car Park (1),,,18,Greenmarket,,Dundee,DD1 4QB,50.0,5,56.4568235,-2.973895,4.295761249502018,
DD1 5EN,"Dundee University, Heathfield Car Park (1)",,,33,Hawkhill,,Dundee,DD1 5EN,50.0,3,56.459786,-2.98359,3.8927132991207953,
DD2 3QN,Dundee Ice Arena,,,,Carlunie Road,,Dundee,DD2 3QN,50.0,3,56.479704,-3.013459,3.8976292136340622,
DD2 3WT,Peter Vardy - 1,,,3,Berryhill Road,,Dundee,DD2 3WT,50.0,9,56.4850495,-3.0625535,3.891887749486446,
DD2 4SW,The Camper Down Elm Pub & Restaurant,,,The Camper Down Elm,1A Fulton Road,,Dundee,DD2 4SW,50.0,3,56.473367,-3.052672,3.8961274582002585,
DD3 7HT,Timms Taxis (Dundee Taxis),,,3-2,Isla Street,,Dundee,DD3 7HT,50.0,23,56.47245888888889,-2.9716398888888893,3.2973390446069035,
DD4 7HG,Lidl - Dundee,,,,,New Craigie Road,Dundee,DD4 7HG,50.0,3,56.476764,-2.931487,3.29492878730636,
DD5 2HG,"Queen Street Car Park, Broughty Ferry",,Broughty Ferry,,Queen Street,,Dundee City,DD5 2HG,50.0,3,56.46774,-2.873403,4.4997972403897695,
DD8 1AX,Angus Council Unknown Location,,,,Angus Council Unknown Location,,Forfar,DD8 1AX,50.0,5,56.63517766666666,-2.9203356666666664,4.326612012298737,
DD8 2BY,FORFAR 1,,Forfar Filling Station,28,Kirkton Park,,Forfar,DD8 2BY,50.0,4,56.644251,-2.881479,4.6633493701720266,
DE1 2JJ,80646,,101-103 Wilmot Street,,,101-103 Wilmot Street,Derby,DE1 2JJ,50.0,3,52.9166,-1.4777,4.096157102770875,
DE1 2JW,Wilmot Street,,,,,Wilmot Street,Derby,DE1 2JW,50.0,2,52.916599,-1.4777,4.49891761558766,
DE11 0AA,Bus Station Car Park,,,,,Civic Way,Swadlincote,DE11 0AA,50.0,2,52.774139,-1.55861,4.24117895975222,
DE14 1RY,Shell Horninglow,,,,Derby Road,,Burton on Trent,DE14 1RY,50.0,3,52.81771,-1.630126,4.2407131122620525,
DE14 2AR,Morrisons Burton,,Wm Morrison Supermarkets Plc,,,Wellington Road,Burton-On-Trent,DE14 2AR,50.0,3,52.793671,-1.664549,2.9947884931545534,
DE14 2WN,Toby Carvery Burton,,,,,Centrum East Retail Park Ninth Avenue,Burton on Trent,DE14 2WN,50.0,2,52.791161,-1.669289,2.997942030639488,
DE14 3JW,BURTON ON TRENT 1,,Bannatyne Health Club & Spa,10,Harcourt Road,,Branston,DE14 3JW,50.0,4,52.793335,-1.6684755,3.5554502003503847,
DE21 2HT,The Oak and Acorn,,,,,Danebridge Crescent,Derby,DE21 2HT,50.0,2,52.941242,-1.43146,2.993416818170643,
DE21 4PB,Bristol Street Motors Nissan Derby 1,,,,,Sir Frank Whittle Road,Derby,DE21 4PB,50.0,7,52.93539725,-1.46483775,4.048824363970294,
DE21 4SY,Meteor Centre Retail Park,,Meteor Centre Retail Park,,,Meteor Centre,Derby,DE21 4SY,50.0,6,52.94258,-1.46325,1.9963932680146015,
DE21 7HX,Blue Jay Pub & Restaurant,,Blue Jay Pub & Resturant,,,Linville Close,Derby,DE21 7HX,50.0,6,52.90171,-1.42469,2.4977826232815974,
DE22 2TF,The Markeaton,,,,,Kedleston Road,Derby,DE22 2TF,50.0,2,52.944401,-1.503,3.4916792349712966,
DE22 3HZ,The Argosy,,,,,Manor Road,Derby,DE22 3HZ,50.0,2,52.911575,-1.507667,3.624857133703515,
DE22 3NH,Kings Highway Pub & Restaurant,,Kings Highway,,,Rowditch Pl,Derby,DE22 3NH,50.0,3,52.91902,-1.50725,3.6223571372672687,
DE23 3TZ,The Hollybrook,,,,Hollybrook Way,Rykneld Road,Derby,DE23 3TZ,50.0,2,52.892174,-1.531881,3.9972300545103763,
DE24 0DW,Lidl - Alvaston,,,,,Raynesway,Derby,DE24 0DW,50.0,3,52.899193,-1.427218,3.498111801852141,
DE24 0JH,The Blue Peter Stonehouse,,,,,Shardlow Road,Derby,DE24 0JH,50.0,2,52.895748,-1.428999,3.6337642205271905,
DE24 3JG,The Stenson Fields,,,,Pilgrims Way,Sinfin,Derby,DE24 3JG,50.0,2,52.876446,-1.503376,3.6358725955497797,
DE24 8JE,Harvester Pride Park,,,,,Roundhouse Road,Derby,DE24 8JE,50.0,2,52.915913,-1.457225,3.940634317464482,
DE24 9EF,New Bridge Inn Pub & Restaurant,,New Bridge Inn Pub & Restauran,,,Chellaston Rd,Derby,DE24 9EF,50.0,3,52.87843,-1.44528,3.1198356841642503,
DE4 4ET,Market Street Car Park,,,,West End,Wirksworth,Matlock,DE4 4ET,50.0,2,53.08215,-1.574028,3.4959298345893917,
DE56 1YA,Morrisons Belper,,,,Wm Morrison Supermarkets PLC,Chapel Street,Belper,DE56 1YA,50.0,3,53.021214,-1.486834,2.995859552523943,
DE7 6DG,Morley Hayes Golf,,,,Main Road,Morley,Ilkeston,DE7 6DG,50.0,2,52.974998,-1.4065,3.9912776365975584,
DE7 8AA,Pimlico Car Park,,,,,Pimlico,Ilkeston,DE7 8AA,50.0,2,52.971794,-1.311135,4.241557218211065,
DG1 1SE,DUMFRIES 1,,Bannatyne Health Club & Spa,,Marchfield House,,Dumfries,DG1 1SE,50.0,4,55.084393,-3.594906,4.495059991745404,
DG1 2SH,"Brooms Road car park, Dumfries",,,50,Brooms Road,Brooms Road,Dumfries,DG1 2SH,50.0,3,55.068243,-3.601498,3.8414661913199737,
DG10 9ER,Station Park Car Park Moffat,,,4,The Glebe,,Moffat,DG10 9ER,50.0,3,55.32969,-3.44582,4.647648039552565,
DG16 5EA,Smiths at Gretna Green Hotel,,,,,Gretna Green,Gretna,DG16 5EA,50.0,4,55.005176500000005,-3.0650505,2.993253594217417,
DG16 5HG,IONITY Gretna Green,,,,,A74(M) Northbound,Gretna,DG16 5HG,350.0,4,55.008352,-3.08653,2.9961308191160794,
DG2 9BF,CUCKOO BRIDGE 1,,Cuckoo Bridge Retail Park,,Glasgow Road,,Dumfries,DG2 9BF,50.0,4,55.0762675,-3.62458,3.494052519391422,
DG6 4NP,Cocoa Bean Company  Kirkcudbright,,,,,,Kirkcudbright,DG6 4NP,50.0,3,54.869241,-4.069985,3.4912669601777155,
DG8 6NT,CREEBRIDGE 1,,Creebridge Filling Station,,Fairway Drive,,Newton Stewart,DG8 6NT,50.0,2,54.961123,-4.479643,3.9945773841942396,
DG9 7RF,Stranraer - Breastworks Car Park,,Breastworks Car Park,,Market Street,,Stranraer,DG9 7RF,50.0,3,54.90594,-5.029015,3.847075699970075,
DG9 8EF,Stranraer,,,1,Bellevilla Road,,Stranraer,DG9 8EF,50.0,3,54.905019,-5.022608,4.041306094750181,
DH1 1JA,ST GILES 1,,St Giles Service Station,,,,Gilesgate,DH1 1JA,50.0,4,54.7794225,-1.556015,3.9415461256310307,
DH1 2HJ,DURHAM 1,,Bannatyne Health Club & Spa,,14 Eden Terrace,,Durham,DH1 2HJ,50.0,4,54.78394900000001,-1.535482,4.69469514245281,
DH1 2HN,BP Dragonville,,,,Alma Place,,Durham,DH1 2HN,50.0,3,54.782652,-1.53841,4.69993912284385,
DH1 5JW,Dryburn View 1,,Dryburn View Shopping Centre,,Finchale Road,,Durham,DH1 5JW,50.0,4,54.792887,-1.5904985,4.499665227117225,
DH3 2PF,DURHAM ROAD 1,,Durham Road Filling Station,,A167,,Birtley,DH3 2PF,50.0,4,54.8925525,-1.577002,2.2964380329159377,
DH7 8EU,Lidl - Langley Moor,,,,,High Street South,Durham,DH7 8EU,50.0,3,54.758106,-1.609687,3.995637651209117,
DH7 8ND,MEADOWFIELD 1,,Meadowfield Filling Station,71,Frederick Street N,,Meadowfield,DH7 8ND,50.0,4,54.7491715,-1.624415,4.495546592109344,
DH8 7ES,Lidl - Consett,,,,,Delves Lane,Consett,DH8 7ES,50.0,3,54.84652,-1.82452,4.496758358170512,
DL1 1SS,DARLINGTON 1,,Bannatyne Health Club & Spa,12,Haughton Road,,Darlington,DL1 1SS,50.0,4,54.528457,-1.5459965,4.09487957193553,
DL15 8ND,Lidl - Crook-New Road,,,,,New Road,Crook,DL15 8ND,50.0,3,54.713454,-1.745023,1.9904754482859603,
DL6 1NW,Lidl - Northallerton,,,,,East Road,Northallerton,DL6 1NW,50.0,3,54.33792,-1.429877,4.646986606933608,
DL6 3JB,The Cleveland Tontine,,,,,Staddlebridge House,Northallerton,DL6 3JB,50.0,2,54.387505,-1.318206,4.649681218629208,
DL8 2AD,Auction Mart Car Park,,,,,Bridge Street,Bedale,DL8 2AD,50.0,2,54.288597,-1.590426,4.04894894400312,
DN11 0TZ,Lidl - Rossington,,,,,West End Lane,Doncaster,DN11 0TZ,50.0,3,53.483611,-1.093833,4.052759678695297,
DN14 6AE,Morrisons Goole,,Wm Morrison Supermarkets PLC,,Boothferry Road,,Goole,DN14 6AE,50.0,3,53.706218,-0.880167,3.7914855326218695,
DN15 6AJ,Jet Steelmakers,,,,Normanby Road,,Scunthorpe,DN15 6AJ,50.0,3,53.598934,-0.645409,3.793231824374086,
DN16 1BA,Lidl - Scunthorpe,,,,,Queensway,Scunthorpe,DN16 1BA,50.0,3,53.567404,-0.623889,3.791583958421329,
DN16 3UA,Morrisons Lakeside Parkway,,Wm Morrison Supermarkets Plc,,,Lakeside Parkway,Scunthorpe,DN16 3UA,50.0,3,53.565334,-0.61622,1.7467446595255225,
DN18 5LQ,Lidl - Barton,,,,,Ferriby Road,Barton,DN18 5LQ,50.0,3,53.681226,-0.453909,3.20975092673216,
DN2 4NF,Jet Harvest - Doncaster,,,,Wheatley Hall Road,,Doncaster,DN2 4NF,50.0,3,53.547517,-1.091497,3.2123604077787062,
DN20 9AN,The Sutton Arms,,,,10 West Street,Brigg,Scawby,DN20 9AN,50.0,2,53.536915,-0.541342,3.4934027922147863,
DN21 1JU,Jet Bridge,,Jet Filling Station,,Bridge Road,,Gainsborough,DN21 1JU,50.0,3,53.392428,-0.775035,4.0985489785334375,
DN21 2NA,MARSHALLS YARD 1,,Marshalls Yard,,Beaumont Street,,Gainsborough,DN21 2NA,50.0,4,53.3985035,-0.772436,3.996726579897581,
DN21 3AA,Lincolnshire Co-op Morton Food Store,,,,,Front Street,Morton,DN21 3AA,50.0,2,53.41433,-0.784768,4.246300452326141,
DN22 6DG,Chancery Lane Car Park,,Chancery Lane Car Park - Retfo,,11 Chancery Lane,11 Chancery Lane,Retford,DN22 6DG,50.0,5,53.322101,-0.9447,3.994289847286331,
DN22 7WF,RCS Plc,,,Randall Park Way,,Randall Park Way,Retford,DN22 7WF,50.0,5,53.335783,-0.9596715,3.9942325079379897,
DN3 3AG,Morrisons Armthorpe,,,,Church Street,Armthorpe,Doncaster,DN3 3AG,50.0,3,53.535561,-1.056663,4.245495242975176,
DN34 5AD,Millfields Hotel,,,,,53 Bargate,Grimsby,DN34 5AD,50.0,4,53.5566905,-0.091194,3.4933029170159235,
DN36 4SX,HUMBERSTON 1,,Bannatyne Health Club & Spa Hu,,Humberston Avenue,,Humberston,DN36 4SX,50.0,4,53.527013,-0.0344665,3.491707991508037,
DN37 7SQ,Morrisons Cleethorpes,,Wm Morrison Supermarkets Plc,,,"Hilmore Road, Laceby",Grimsby,DN37 7SQ,50.0,3,53.55024,-0.137955,4.497601359150377,
DN4 5AJ,White Rose Retail Centre,,White Rose Retail Centre,,,White Rose Way,Doncaster,DN4 5AJ,50.0,6,53.51534,-1.12855,4.495030666689976,
DN4 6NN,BP Cantley,,,,Cantley Lane,,Doncaster,DN4 6NN,50.0,3,53.508034,-1.07463,4.497040084851522,
DN4 7BS,Toby Carvery Bessacarr,,,,,Bawtry Road,Doncaster,DN4 7BS,50.0,2,53.502808,-1.081148,4.495767257077836,
DN4 8DD,Lidl - Doncaster,,,,,Sandford Road,Doncaster,DN4 8DD,50.0,3,53.507416,-1.147151,4.990281770411721,
DN4 9UX,Holiday Inn Doncaster,,A1 (M) jct 36,,High Road,Warmsworth,Doncaster,DN4 9UX,50.0,2,53.499649,-1.17654,4.996559775353663,
DN40 1AD,County Hotel,,,,,Pelham Road,Immingham,DN40 1AD,50.0,2,53.619537,-0.203316,4.990147602087207,
DN41 8AP,The Green Man,,,,110 Station Road,Stallingborough,Grimsby,DN41 8AP,50.0,2,53.588909,-0.180175,4.994606354420129,
DN5 0EW,Lidl - Askern Road,,,,,Askern Road,Doncaster,DN5 0EW,50.0,3,53.551067,-1.147305,2.4908706489709362,
DN5 8RN,Sun Pub & Restaurant,,Sun Pub & Restaurant,,,Doncaster,Doncaster,DN5 8RN,50.0,3,53.537,-1.1648,2.991374610342337,
DN7 6JH,Hatfields Pub & Restaurant,,Hatfields Pub & Restaurant,,,Ash Hill Rd,Doncaster,DN7 6JH,50.0,3,53.57467,-1.00781,2.992628616603045,
DN7 6NL,Green Tree Inn Doncaster,,,,Tudworth Road,Hatfield,Doncaster,DN7 6NL,50.0,2,53.579918,-0.969151,2.9948112766575425,
DN8 4JE,Kings Chamber Pub & Restaurant,,Kings Chamber,,,Selby Road,Thorne,DN8 4JE,50.0,6,53.6164625,-0.9759255,2.9981458937832275,
DT1 1AG,DRC Lower Trinity Street Car Park,,,,,,Dorchester,DT1 1AG,50.0,2,50.712571,-2.438777,2.824670646388017,
DT1 1TU,"Dorchester, Trinity Street Car Park",,,,"Dorchester, Trinity Street Car Park",Trinity Street Car Park,Dorchester,DT1 1TU,50.0,5,50.7125595,-2.43861,4.393544482473927,
DT1 3AZ,"The Buttermarket, Poundbury",,"The Buttermarket, Poundbury",,,3 Buttermarket,Dorchester,DT1 3AZ,50.0,6,50.71191,-2.46599,4.399294090867213,
DT11 7AW,Morrisons Blandford,,Wm Morrison Supermarkets PLC,,West Street,,Blandford Forum,DT11 7AW,50.0,3,50.854759,-2.166092,3.9917363108725943,
DT3 5AX,Morrisons Weymouth,,Wm Morrison Supermarkets PLC,244 Dorchester Road,,,Weymouth,DT3 5AX,50.0,3,50.632557,-2.463927,3.7428510671283797,
DT4 8NA,"Weymouth, Harbourside Car Park",,,,"Weymouth, Harbourside Car Park",Harbourside Car Park,Weymouth,DT4 8NA,50.0,7,50.610132,-2.4566580000000005,4.292458696154926,
DT5 1SA,Lidl - Portland,,,,,Hamm Beach Road,Portland,DT5 1SA,50.0,3,50.570467,-2.457698,4.297299024891776,
DT6 3LL,"Bridport, East Street Car Park",,,,"Bridport, East Street Car Park",East Street,Bridport,DT6 3LL,50.0,7,50.73301033333333,-2.7547806666666665,4.492629647538205,
DT7 3DR,"Lyme Regis, Charmouth Road Car Park",,,,Charmouth Road,,Lyme Regis,DT7 3DR,50.0,5,50.729212,-2.9312855,4.49258363849854,
DY1 1RT,Stafford Street Dudley,,,,Stafford Street Dudley,Stafford Street,Dudley,DY1 1RT,50.0,5,52.5195085,-2.089682,4.1467728671938495,
DY1 4LQ,Shell Sedgley Road - Dudley,,,,Shell UK Ltd,,Dudley,DY1 4LQ,50.0,3,52.53267,-2.093094,3.5972135417412443,
DY10 1AA,Weavers Wharf,,Black Horse Lane,3,Kidderminster,DY10 1AA,Kidderminster,DY10 1AA,50.0,5,52.387387,-2.250766,4.370446326697731,
DY11 7PT,Kidderminster 1,,,,Foley Buisness Park,,Kidderminster,DY11 7PT,50.0,4,52.36278,-2.2654915,3.9951155289040874,
DY5 1UA,Brierly Hill Dudley,,,,Brierly Hill Dudley,,Brierley Hill,DY5 1UA,50.0,3,52.48384,-2.1201,4.493451668920344,
DY5 1UR,Brierly Hill - Public Car Park,,,,,Level Street,Dudley,DY5 1UR,50.0,2,52.483841,-2.1201,3.996691403407597,
DY5 3LS,Nissan West Way Stourbridge,,,,,Brettell Lane,Brierley Hill,DY5 3LS,50.0,5,52.473353,-2.139227,3.996685822576827,
DY6 8BS,Costa Coffee Drive through,,,,,Dudley Road,Kingswinford,DY6 8BS,50.0,2,52.500301,-2.151,2.9913777231380254,
DY7 6NY,Manor House of Whittington Pub & Restaurant,,Manor House Pub & Restaurant,,,A449,Kinver,DY7 6NY,50.0,3,52.44303,-2.21237,2.9974495553642266,
E1 1DT,SHELL RECHARGE WHITECHAPEL,,Shell Whitechapel (028),,,139-149 Whitechapel Road,London,E1 1DT,50.0,3,51.517756,-0.066129,4.295479480829405,
E11 1HE,Leytonstone London Underground Station,,,,,"Leytonstone London Underground Station, Church Lane, Leytonstone",Waltham Forest,E11 1HE,50.0,2,51.567892,0.007567,4.092144230254879,
E14 2BE,Republic Building,,Import Building,,2 Clove Crescent,2 Clove Crescent,Poplar,E14 2BE,50.0,11,51.509946,-0.005424,4.094391465516214,
E14 4AS,Cannon Workshops,,,,Cannon Workshops,Cannon Drive,London,E14 4AS,50.0,4,51.507202,-0.026712,4.0983617700692845,
E14 5NR,Bank Street,,,,,Canary Wharf,London,E14 5NR,50.0,2,51.503216,-0.017742,3.598988553945001,
E15 1EN,Morrisons Stratford,,Wm Morrison Supermarkets PLC,,The Grove,,Stratford,E15 1EN,50.0,3,51.543517,0.005284,3.9953735304061646,
E151EN,Morrisons Stratford,,Wm Morrison Supermarkets PLC,,The Grove,,Stratford,E151EN,50.0,3,51.543517,0.005284,3.991224884789566,
E16 1GB,The Crystal Car Park 1,,,,Western Gateway,,Silvertown,E16 1GB,50.0,11,51.507497666666666,0.0161605,3.9966540001806394,
E2 7JP,Hackney Council Calvert Avenue,,,,Calvert Avenue,Calvert Avenue,Bethnal Green,E2 7JP,50.0,6,51.526404,-0.0771505,4.349581275070276,
E20 1YY,Stratford International car park 3rd floor,,Stratford Intl Car Park,,,International Way,HS1,E20 1YY,50.0,72,51.56737890909093,-0.0057940909090909,3.9995376419727386,
E20 2ST,Queen Elizabeth Olympic Park,,,,,Copper Box Car Park,London,E20 2ST,50.0,8,51.54398225,-0.019884,4.0450614650576995,
E3 4HL,420-421 Burdett Road,,,,,420-421 Burdett Road,London,E3 4HL,50.0,2,51.519634,-0.031043,4.045893380041579,
E5 9BU,Upper Clapton Road,,,,,113 Upper Clapton Road,Hackney,E5 9BU,50.0,3,51.564615,-0.059948,4.3999935085534485,
E6 6JF,Sainsbury's Beckton 1,,,1,Claps Gate Lane,Claps Gate Lane,East Ham,E6 6JF,50.0,30,51.52151107142858,0.0666507857142857,3.4955421509248215,
E8 1GQ,Hackney Council Service Centre,,Reading Lane,,Reading Lane,Hackney,Hackney Central,E8 1GQ,50.0,6,51.5447255,-0.0564755,4.244022076462225,
EC1R 0AE,Meredith Street (Opp. 17),,,,,"Meredith Street (Opp.17), Clerkenwell",Islington,EC1R 0AE,50.0,3,51.52723,-0.10495,4.149847407531166,
EC1V 9BP,SHELL RECHARGE OLD STREET,,SHELL OLD STREET,,,198-208 Old Street,London,EC1V 9BP,50.0,3,51.525169,-0.090466,4.241412098487967,
EC1V 9LN,Holiday Inn Express London City,,,,,275 old street,London,EC1V 9LN,50.0,2,51.526699,-0.0823,4.294203764069267,
EC1Y 0RU,Golden Lane (Outside Peabody Buildings),,,,,"Golden Lane (Outside Peabody Buildings), Islington",Islington,EC1Y 0RU,50.0,3,51.522781,-0.094463,4.34599151032722,
EC2V 7EE,"Noble Street,City of London",,,,,"Noble Street, City of London",City of London,EC2V 7EE,50.0,2,51.51627,-0.095994,4.291262748724869,
EH10 5DT,Napier University,,,33A,Colinton Road,,Edinburgh,EH10 5DT,50.0,3,55.933326,-3.213896,4.295515369921463,
EH11 1AF,X Leisure Edinburgh Ltd,,,,,,Edinburgh,EH11 1AF,50.0,7,55.94166766666666,-3.217192333333333,4.297325189557859,
EH14 2TF,Murrayburn Depot,,,29A,Murrayburn Road,,Edinburgh,EH14 2TF,50.0,3,55.922457,-3.270558,3.5955537626113805,
EH14 5PX,Hermiston Park and Ride,,,4-5,Riccarton Mains Road,,Edinburgh,EH14 5PX,50.0,3,55.896842,-3.30879,4.642786183075358,
EH16 4DS,Niddrie Mains Road,,Community Centre,,Niddrie Mains Road,Niddrie,Edinburgh,EH16 4DS,50.0,3,55.933135,-3.135871,2.062090280411839,
EH20 9NW,Straiton,,,48,Straiton Road,,Loanhead,EH20 9NW,50.0,3,55.88665,-3.165066,3.498014875851271,
EH20 9PW,IKEA Edinburgh,,11 Straiton Mains,,Straiton Road,"Straiton, Loanhead",Loanhead,EH20 9PW,50.0,6,55.88273075,-3.16644975,4.247892969139074,
EH22 1FD,Scottish Qualifications Authority,,Old Colliery Pub & Restaurant,1,Wester Shawfair,Danderhall,Dalkeith,EH22 1FD,50.0,5,55.9065805,-3.101427,3.4992915598564154,
EH22 1RU,Sheriffhall P & R,,,2,Sheriffhall Roundabout,,Dalkeith,EH22 1RU,50.0,5,55.889934,-3.089551,3.9977291700166595,
EH22 3PP,McDonalds Car Park,,"McDonalds, Dalkeith",,,Bonnyrigg Road,Dalkeith,EH22 3PP,50.0,6,55.88143,-3.08639,3.9976811544802993,
EH28 8LS,Ingliston Park & Ride Rapid,,Ingliston Park & Ride,49,Eastfield Road,,Newbridge,EH28 8LS,50.0,5,55.93872033333333,-3.359287333333333,3.827693717540699,
EH28 8LX,Norton House Hotel & Spa,,,,,Ingliston,Newbridge,EH28 8LX,50.0,2,55.932598,-3.3848,3.8263919878116543,
EH30 9SF,Forth Bridge Visitors Centre,,Forth Bridge Visitors' Centre,Car Park,Ferrymuir Gate,A90,South Queensferry,EH30 9SF,50.0,3,55.987824,-3.404148,3.2410810764607825,
EH4 2NT,SHELL RECHARGE LITTLE WAITROSE CIRCLE,,SHELL LITTLE WAITROSE CIRCLE,,,Crewe Toll,Edinburgh,EH4 2NT,50.0,3,55.967531,-3.235826,3.830546026321419,
EH42 1LE,"Spott Road, Dunbar",,Pine Marten East Lothian,1A,Spott Road,Spott Road,Dunbar,EH42 1LE,50.0,6,55.992172,-2.510534,4.245456835202052,
EH45 8HH,"Rosetta Road, Peebles (2)",,,,Rosetta Road,,Peebles,EH45 8HH,50.0,2,55.6569085,-3.1965825,3.995343067717789,
EH47 0QE,Whitburn Swimming Pool,,,101,West Main Street,,Bathgate,EH47 0QE,50.0,3,55.866128,-3.687528,3.8976958606222736,
EH52 5AR,Lidl - Broxburn,,,,,Thistle Industrial Estate,Broxburn,EH52 5AR,50.0,3,55.935135,-3.456273,2.9940265002331214,
EH54 6GA,Chain Runner Pub & Restaurant,,Chain Runner,,,Almondvale Way,Livingston,EH54 6GA,50.0,3,55.87976,-3.52417,2.993259209928424,
EH54 9FD,LIVINGSTON 1,,Bannatyne Health Club & Spa,,Charlesfield Road,,Livingston,EH54 9FD,50.0,4,55.873658,-3.5386125,2.9932742377183423,
EN1 1TW,Morrisons Enfield,,Wm Morrison Supermarkets PLC,327 Southbury Road,327 Southbury Road,,Enfield,EN1 1TW,50.0,6,51.648497,-0.0579449999999999,3.694069855487518,
EN1 1YY,Colman Parade,,,,,Southbury Rd,London,EN1 1YY,50.0,2,51.652283,-0.078688,4.144423073710716,
EN1 4SB,SHELL RECHARGE BUDGENS BULLSMOOR,,SHELL BUDGENS BULLSMOOR,,,233 Bullsmoor Lane,Enfield,EN1 4SB,50.0,2,51.680289,-0.049476,2.833310741359671,
EN3 5BA,Brick Lane,,,,,Junction with A1010,London,EN3 5BA,50.0,4,51.65757,-0.047929,3.44041659215909,
EN3 6LZ,Lidl - Enfield Wash,,,,,654-658 Hertford Road,Enfield,EN3 6LZ,50.0,3,51.6717,-0.0404,3.095994311185599,
EN5 3JG,SHELL RECHARGE LITTLE WAITROSE STIRLING,,SHELL LITTLE WAITROSE STIRLIN,,,Stirling Corner,Barnet,EN5 3JG,50.0,3,51.643169,-0.253752,3.991473539365672,
EN8 0JA,Shell Chesthunt,,,,Flamstead End Service Station,,Waltham Cross,EN8 0JA,50.0,3,51.71159,-0.050378,2.747003260551967,
EN8 7AA,Lidl - Waltham Cross,,,,,High Street,Waltham Cross,EN8 7AA,50.0,3,51.683332,-0.032163,3.6395253573357884,
EN9 1JD,Glyn Hopkin Nissan Dealership,,,1,Cartersfield Road,Cartersfield Road,Waltham Abbey,EN9 1JD,50.0,5,51.6824305,-4.500000000000001e-06,3.6941250547418587,
EN9 1JG,Glyn Hopkin Waltham Abbey,,Glyn Hopkins Waltham Abbey,,,1 Cartersfield Road,Waltham Abbey,EN9 1JG,50.0,3,51.6825565,0.001195,3.8994460798645187,
EX14 9ND,ROUTE 1,,Route Restaurants,,Route 303,,Honiton,EX14 9ND,50.0,4,50.874479,-3.0932175,3.9938973244995006,
EX15 1LL,CULM VALLEY 1,,Culm Valley Sports Centre,,Meadow Lane,,Cullompton,EX15 1LL,50.0,4,50.8511255,-3.3911100000000003,4.997641702396747,
EX15 1NS,EX Cullompton,,,,"M5 Motorway, Jct 28",Old Station Yard,Cullompton,EX15 1NS,50.0,2,50.862939,-3.384404,4.999944057675479,
EX16 4JX,Lidl - Tiverton,,,,,Blundells Road,Tiverton,EX16 4JX,50.0,3,50.905173,-3.480463,4.990699701054192,
EX16 6S,EXE VALLEY 1,,,,Bolham Road,,Tiverton,EX16 6S,50.0,2,50.909806,-3.488931,4.999010714927658,
EX16 6SG,EXE VALLEY 2,,Exe Valley Leisure Centre,,Bolham Road,,Tiverton,EX16 6SG,50.0,2,50.909826,-3.488935,4.340360108721154,
EX17 1ER,LORDS MEADOW 2,,Lords Meadow Leisure Centre,,Commercial Road,,Crediton,EX17 1ER,50.0,4,50.791215,-3.643269,3.9979082079980213,
EX2 8BP,The Malt House Harvester,,,,,7 Haven Road,Exeter,EX2 8BP,50.0,2,50.716869,-3.534999,3.498112793669489,
EX22 6DJ,Manor Car Park Holsworthy,,,,Manor Car Park,North Road,Holsworthy,EX22 6DJ,50.0,3,50.810661,-4.35378,3.7467151842880027,
EX23 8LE,Bude Tourist Information Centre,,Next to Tourist Info centre,,Bencoolen Road,The Crescent,Bude,EX23 8LE,50.0,6,50.82700749999999,-4.54631,2.994021070796657,
EX31 4AX,Heanton,,,,,Braunton,Barnstaple,EX31 4AX,50.0,2,51.094429,-4.124412,2.996222058921765,
EX32 9HQ,BARNSTAPLE 1,,Taw Garage Esso,,Barbican Lane,,Barnstaple,EX32 9HQ,50.0,4,51.0766665,-4.049691,3.665238456745276,
EX33 2BJ,BRAUNTON 1,,Braunton Service Station,,1 Southlands,,Braunton,EX33 2BJ,50.0,2,51.105212,-4.159695,3.9987870873003906,
EX38 8AB,Sydney House Carpark Torrington,,Sydney House Car Park Torringt,,South Street,,Torrington,EX38 8AB,50.0,3,50.812029,-4.352947,4.697927505295579,
EX39 1RL,Churchfields Car Park Bideford,,,,Churchfields Car Park Churchfield Road,,Bideford,EX39 1RL,50.0,3,51.055281,-4.1926,2.995319546488047,
EX39 2QS,Riverbank Car Park Bideford,,Riverbank Car Park Bideford,Southwest Coast Path,Bank End,,"Bideford, Lundy Island",EX39 2QS,50.0,3,51.021909,-4.203325,4.190488328060889,
EX39 3EU,BLIGHTS MOTORS,,BLIGHTS MOTORS,Bolham Road,Clovelly Road,Bolham Road,Bideford,EX39 3EU,50.0,2,51.01084,-4.223207,3.943655000857941,
EX39 3QB,Durrant House Hotel,,,,,Heywood Road,Northam,EX39 3QB,50.0,4,51.0336785,-4.211417,4.248401680440043,
EX4 7BY,Morrisons Exeter,,,,Wm Morrison Supermarkets PLC,,Exeter,EX4 7BY,50.0,3,50.73446,-3.503141,4.211292216448895,
EX4 8GA,Pinhoe Hoard Pub & Restaurant,,Pinhoe Hoard Pub & Restaurant,,,2 Bakers Way,Exeter,EX4 8GA,50.0,6,50.73516,-3.47928,3.999810588517207,
EX6 7XS,Exeter Racecourse,,,,,Kennford,Exeter,EX6 7XS,50.0,2,50.641567,-3.56046,4.592755940384765,
FK10 1EB,"Kilncraigs Car Park, Alloa (1)",,,,Greenside Street,,Alloa,FK10 1EB,50.0,9,56.11262175,-3.7897435,2.9984029996452475,
FK15 0HG,DoubleTree by Hilton Hotel Dunblane Hydro,,,,,Perth Road,Dunblane,FK15 0HG,50.0,2,56.190796,-3.953145,3.8676430639237345,
FK15 0NB,SHELL RECHARGE BALHALDIE,,SHELL BALHALDIE,,,A9 Southbound,Dunblane,FK15 0NB,50.0,3,56.229968,-3.901656,3.594651152448998,
FK2 7ES,"Meeks Road, Falkirk",,,16,Meeks Road,,Falkirk,FK2 7ES,50.0,3,56.0032,-3.786629,4.248528953951059,
FK2 9EE,Falkirk Stadium,,,4,Stadium Way,,Falkirk,FK2 9EE,50.0,7,56.005459,-3.753870000000001,4.499893136164616,
FK20 8RY,The Real Food Cafe,,,,,Tyndrum,Crianlarich,FK20 8RY,50.0,6,56.436161,-4.711599,3.4488087134150796,
FK21 8UT,KILLIN,,,,Monomer Car Park,,Killin,FK21 8UT,50.0,3,56.46542,-4.31862,4.344722777267651,
FK8 1QZ,Forthside,,,,Forthside Way,,Stirling,FK8 1QZ,50.0,3,56.118157,-3.928458,4.398310433732305,
FK9 4TW,Castleview Park & Ride,,The Castle Business Park,,A84,,Stirling,FK9 4TW,50.0,5,56.13076,-3.965174,4.247452473470639,
FK9 4UA,Highland Gate Pub & Restaurant,,Highland Gate,,,Drip Road,Stirling,FK9 4UA,50.0,6,56.13342,-3.964604,2.7457625026789727,
FK9 5EG,Stephens Bakery,,,,,45 Causewayhead Road,Stirling,FK9 5EG,50.0,2,56.136765,-3.925249,3.7492998691351387,
FY4 4UT,Toby Carvery Blackpool,,,,,Preston New Road,Blackpool,FY4 4UT,50.0,2,53.801224,-2.992728,4.243256825838303,
FY5 3FT,Norcross Vets,,,,,Norcross Lane,Thornton-Cleveleys,FY5 3FT,50.0,2,53.863869,-3.012015,4.49832804993373,
FY5 3TS,Morrisons Thornton Cleverleys,,Wm Morrison Supermarkets Plc,,,Amounderness Way,Thornton-Cleveleys,FY5 3TS,50.0,3,53.872601,-3.026212,3.1904866937118657,
G1 1RX,"Hydro Arena, Glasgow",,,229,George Street,,Glasgow,G1 1RX,50.0,3,55.859715,-4.282673,3.635956834703368,
G3 8QT,Crowne Plaza Glasgow,,,,,Congress Road,Glasgow,G3 8QT,50.0,4,55.860323,-4.2911175,4.4930048528805235,
G3 8RS,"Riverside Museum, Glasgow",,,,Riverside Museum Pier,,Glasgow,G3 8RS,50.0,9,55.865339250000005,-4.3057170000000005,2.249768429765252,
G33 6GL,STEPPS 1,,Bannatyne Health Club & Spa,,Cumbernauld Road,,Stepps,G33 6GL,50.0,4,55.8927375,-4.139628999999999,3.999737771918076,
G4 0UW,Duke Street Car Park,,Duke Street Car Park,92,Duke Street,,Glasgow,G4 0UW,50.0,3,55.859316,-4.236345,3.494288940999331,
G42 0PH,AIKENHEAD 1,,Aikenhead Filling Station,505,Aikenhead Road,,Glasgow,G42 0PH,50.0,4,55.8323455,-4.2479635,4.330609770701126,
G44 5LZ,CROFTFOOT 1,,Gulf Croftfoot Service Station,556,Castlemilk Road,,Glasgow,G44 5LZ,50.0,4,55.8141555,-4.228027,2.9973662789061866,
G46 7EG,Rouken Glen Rd,,,4,Rouken Glen Road,,Glasgow,G46 7EG,50.0,3,55.80121,-4.320431,4.9923212211173675,
G5 0BJ,Jenny Burn Oatlands Pub & Restaurant,,Jenny Burn Oatlands,,,"8 Clyde Gateway, Glasgow G5 0BJ",Glasgow,G5 0BJ,50.0,3,55.83889,-4.2307,4.745335137904165,
G5 8QB,Shields Road Park and Ride,,,225,Scotland Street,,Glasgow,G5 8QB,50.0,3,55.849615,-4.275779,2.3266848621871925,
G51 4BN,"Braehead Shopping Centre, Glasgow (1)",,,,,Kings Inch Road,Glasgow,G51 4BN,50.0,7,55.87422999999999,-4.363483,4.992528939974672,
G51 4FB,IKEA Glasgow,,,99,Kings Inch Drive,,Glasgow,G51 4FB,50.0,2,55.870143,-4.358453,4.2454723434973545,
G52 3PF,UNIVERSE 2,,Gulf Universe,2169,Paisley Road West,,Glasgow,G52 3PF,50.0,4,55.845521,-4.356081,4.142638479876375,
G64 2HS,LOWMOSS 1,,Gulf Lowmoss,,Kirkintilloch Road,,Bishopbriggs,G64 2HS,50.0,2,55.920229,-4.211653,2.992128765231139,
G66 1AD,Kirkintilloch-William Patrick Library car park,,,2-4,West High Street,,Kirkintilloch,G66 1AD,50.0,3,55.941555,-4.159049,3.893660187433365,
G66 3HG,KIRKIE 1,,,Kirkie Filling Station,78 Waterside Road,,Kirkintilloch,G66 3HG,50.0,2,55.934649,-4.138548,3.495403584658794,
G68 9AW,The Red Deer,,,,Auchenkilns Park,Cumbernauld,Glasgow,G68 9AW,50.0,2,55.942955,-4.01828,2.997649781598817,
G68 9JY,Cumbernauld Retail Park,,Cumbernauld Retail Park,,,Cumbernauld Retail Park,Glasgow,G68 9JY,50.0,6,55.94418,-4.03174,2.498688941910105,
G72 7PD,CAMBUSLANG 1,,Gulf Cambuslang,144,Hamilton Road,,Cambuslang,G72 7PD,50.0,2,55.814153,-4.149966,3.2438612513424148,
G74 1LU,Lidl - East Kilbride,,,,,Churchill Avenue,Glasgow,G74 1LU,50.0,3,55.762816,-4.172292,3.690965859209653,
G74 5LB,East Kilbride - James Hamilton Heritage Loch,,James Hamilton Heritage Loch,,Stewartfield Way,,East Kilbride,G74 5LB,50.0,3,55.777418,-4.186191,3.7497678129512675,
G77 6UH,GREENLAW 1,,Greenlaw Shopping Village,,,,Newton Mearns,G77 6UH,50.0,4,55.782874,-4.3482805,3.49571181378558,
G81 2UA,"Clyde Retail Park, KFC Car Park",,Clyde Retail Park,,,Unit 2 clydebank shopping centre,Clydebank,G81 2UA,50.0,6,55.90338,-4.39719,4.791252716431136,
G83 7AP,Arrochar Car Park Loch Long,,,,,,Alexandria,G83 7AP,50.0,3,56.206252,-4.750998,3.492690968416553,
G83 8HS,Balloch- Drymen Road Car Park,,,,Drymen Road,,Alexandria,G83 8HS,50.0,3,56.005002,-4.573068,1.7462984136204325,
GL10 2PB,BRIDGE 1,,Bridge Service Station,,2 Gloucester Road,,Stonehouse,GL10 2PB,50.0,2,51.750041,-2.283386,0.9942876305670365,
GL15 5DN,Tesco Superstore - Lydney High Street,,,,,High Street,Lydney,GL15 5DN,50.0,6,51.7244,-2.5345,3.2926739833640783,
GL16 7EL,The Speech House,,,,,Speech House Road,Coleford,GL16 7EL,50.0,2,51.806339,-2.552257,4.325123310843392,
GL16 8SH,Lidl - Coleford,,,,,Old Station Way,Coleford,GL16 8SH,50.0,3,51.792455,-2.614374,4.292988775897089,
GL2 0JH,Esso Longlevens,,,,131 Cheltenham Road,,Gloucester,GL2 0JH,50.0,3,51.874221,-2.210809,3.399071363666066,
GL2 0XH,Greyhound Pub & Resturant,,Greyhound Pub & Resturant,,,Longlevens,Gloucester,GL2 0XH,50.0,3,51.87779,-2.20407,3.9954205011800625,
GL2 4PE,Haywain Pub & Restaurant,,Haywain Pub & Restaurant,,,Bristol Rd,Gloucester,GL2 4PE,50.0,3,51.82685,-2.27762,4.247607588411434,
GL2 8BZ,The Wharf House,,The Wharf House,,Horseshoe Drive,,Gloucester,GL2 8BZ,50.0,3,51.875801,-2.270267,3.326401401149536,
GL2 8DB,The Wharf House,,,,,Horseshoe Drive,Over,GL2 8DB,50.0,2,51.8755,-2.2685,3.8457519215174165,
GL3 4PB,Cheltenham Chase Hotel,,Cheltenham Chase Hotel,,,Shurdington Rd,Gloucester,GL3 4PB,50.0,3,51.843692,-2.146016,4.367225490350634,
GL3 4PL,SHELL RECHARGE CROSSHANDS,,SHELL CROSSHANDS,,,Cirencester Road,Gloucester,GL3 4PL,50.0,3,51.842004,-2.149066,3.145467471382971,
GL4 3RX,Holiday Inn Gloucester - Cheltenham,,,,Crest Way,Barnwood,Gloucester,GL4 3RX,50.0,2,51.864101,-2.1946,4.644365306843065,
GL4 4FF,Morrisons Gloucester,,,,Wm Morrison Supermarkets PLC,"10 Heron Way, Abbeydale",Gloucester,GL4 4FF,50.0,3,51.841326,-2.205251,3.9926441052627437,
GL5 1RR,STROUD 1,,Merrywalks Shopping Centre,,23 Merrywalks,,Stroud,GL5 1RR,50.0,8,51.74624675,-2.21898775,3.9997005759302384,
GL50 4DF,Lidl - Cheltenham,,,,,27 Swindon Road,Cheltenham,GL50 4DF,50.0,3,51.90536,-2.077058,3.54188717870415,
GL50 4SH,Cheltenham Racecourse,,,,,Evesham Road,Cheltenham,GL50 4SH,50.0,5,51.9197945,-2.0690350000000004,3.9990197409395987,
GL51 8JQ,Tesco Superstore - Cheltenham,,,,,Colletts Drive,Cheltenham,GL51 8JQ,50.0,6,51.905567,-2.087004,3.4951998368180046,
GL51 8NP,Compass Holidays,,The Old Royal Mail Depot,,Gloucester Road,Cheltenham Spa Railway Station,Cheltenham,GL51 8NP,50.0,3,51.896908,-2.100749,3.9966630957903537,
GL53 8EG,Clock Tower Pub & Restaurant,,The Clock Tower Pub & Restaura,,,Charlton Kings,Cheltenham,GL53 8EG,50.0,3,51.87503,-2.05285,4.248927692336368,
GL53 8QW,EAST END 1,,East End Service Station,,71 East End Road,,Charlton Kings,GL53 8QW,50.0,2,51.882202,-2.038946,4.393848224394822,
GL56 0JY,Old Market Way Car Park,,,,Station Road,Moreton-in-Marsh,Cotswold,GL56 0JY,50.0,5,51.990783,-1.7009115,4.990267977042305,
GL6 0FG,Ecotricity - FGR,,,"The New Lawn, Another Way",The New Lawn,Another Way,Stroud,GL6 0FG,50.0,3,51.69942699999999,-2.237019,3.6162147828288016,
GL7 1BW,Beeches Car Park,,,,Beeches Car Park,Beeches Road,Cirencester,GL7 1BW,50.0,5,51.716704,-1.960273,4.199407038457488,
GL7 1YG,Lidl - Cirencester,,,,,Love Lane,Cirencester,GL7 1YG,50.0,3,51.70582,-1.959753,4.499274141109659,
GU1 1RD,Vines of Guildford,,,,Vines of Guildford,Slyfield Green Estate,Guildford,GU1 1RD,50.0,5,51.261155,-0.5665675,4.495414904415898,
GU10 5AB,SHELL RECHARGE LITTLE WAITROSE FOLLY HILL,,SHELL LITTLE WAITROSE FOLLY H,,,Odiham Road,Farnham,GU10 5AB,50.0,2,51.235127,-0.814305,3.1584601475202514,
GU14 0HS,Farnborough,,Esso Service Station,,,Bridge Road,Farnborough,GU14 0HS,50.0,6,51.29282,-0.7698235,3.492378651519397,
GU14 0JW,The Sarsen Stones Pub & Restaurant,,The Sarsen Stones,,,10 Apollo Rise,Farnborough,GU14 0JW,50.0,3,51.29278,-0.78588,3.6165632156583576,
GU14 6AZ,Holiday Inn Farnborough,,,,,Lynchford Road,Farnborough,GU14 6AZ,50.0,2,51.273998,-0.7547,3.9986645804725907,
GU14 7SJ,Farnborough Queensmead Carpark,,,,Kingsmead,,Farnborough,GU14 7SJ,50.0,3,51.290403,-0.754208,2.497823877088227,
GU16 7UJ,Frimley Park Hospital,,,Frimley Park Hospital,High Beeches,Surrey Heath,Camberley,GU16 7UJ,50.0,8,51.319509333333336,-0.7423433333333334,4.293641737942413,
GU19 5EG,Miller & Carter Bagshot,,,,,39 London Road,Bagshot,GU19 5EG,50.0,2,51.360889,-0.694948,4.996627447324785,
GU19 5HL,BP Bagshot,,,,,40 London Road,Bagshot,GU19 5HL,50.0,4,51.3634565,-0.6915515000000001,4.145600737197442,
GU2 9UY,SHELL RECHARGE LITTLE WAITROSE STOUGHTON,,SHELL LITTLE WAITROSE STOUGHT,,,200-202 Worplesdon Road,Guildford,GU2 9UY,50.0,3,51.256617,-0.594088,4.4426921508989246,
GU21 6ND,Morrisons Woking,,Wm Morrison Supermarkets PLC,82,Goldsworth Road,"Mount Hermon, Westfield",Woking,GU21 6ND,50.0,3,51.315492,-0.568045,4.99386998571062,
GU25 4QF,SHELL RECHARGE LITTLE WAITROSE WHEATSHEAF,,SHELL LITTLE WAITROSE WHEATSH,,,London Road,Virginia Water,GU25 4QF,50.0,3,51.4092,-0.592482,3.497185377332789,
GU27 2NX,Waverley Haslemere,,,,38 Lower Street,,Haslemere,GU27 2NX,50.0,3,51.088363,-0.710843,3.998469122716599,
GU29 9DW,South Downs National Park,,South Downs National Park,,South Downs National Park,Midhurst,Midhurst,GU29 9DW,50.0,5,50.989012,-0.7376015,4.247120850256761,
GU30 7TU,A3 Liphook Services - Northbound,,Liphook Service Station,,Northbound A3,Liphood By-pass,Liphook,GU30 7TU,50.0,6,51.082883,-0.819429,4.445352655514756,
GU32 1JX,WEST MEON 1,,West Meon Service Station,,A32/A272 Crossroads,,West Meon,GU32 1JX,50.0,4,51.031115,-1.0757745,2.4964848390497503,
GU32 3JA,Waitrose Petersfield,,,Waitrose,Rams Walk,,Petersfield,GU32 3JA,50.0,3,51.004798,-0.937206,0.9969819309648933,
GU32 8JA,Waitrose Petersfield,,,8 Rams Walk,,,Petersfield,GU32 8JA,50.0,3,51.00515,-0.937171,4.048031273762245,
GU34 1FG,Manor Way Carpark Alton,,,,Draymans Way,,Alton,GU34 1FG,50.0,3,51.149351,-0.973908,3.8331078940247028,
GU35 9AH,Woodlark Pub & Restaurant,,Woodlark Pub & Restaurant,,,Petersfield Road,Bordon,GU35 9AH,50.0,3,51.10534,-0.86786,2.998071966800524,
GU51 1HA,Morrisons Fleet,,,,Elvetham Heath,,Fleet,GU51 1HA,50.0,3,51.290277,-0.856715,3.3926086553293953,
GU51 2SH,Miller & Carter Fleet,,,,,Cove Road,Fleet,GU51 2SH,50.0,2,51.293629,-0.805584,4.116142041561795,
GU51 4NA,"Church Road, Fleet",,Church Road Short Stay Car Par,,,Church Road,Fleet,GU51 4NA,50.0,6,51.2829,-0.84245,4.996785983325201,
GU6 8RQ,Waverley Haslemere High Street Car Park,,,,"Stocklund Square Car Park, High Street",,Waverley,GU6 8RQ,50.0,3,51.141847,-0.493737,2.0627885018052363,
GU7 1HR,Godalming Crown Court Car Park,,Godalming Crown Court Car Park,,Waverley Borough Council,The Burys,Godalming,GU7 1HR,50.0,9,51.1869842,-0.6111298000000001,4.3695988585514085,
GU7 1RH,The Inn on the Lake,,,,,Ockford Road,Godalming,GU7 1RH,50.0,2,51.180687,-0.623084,3.246753966979249,
GU9 7SW,Lidl - Farnham,,,,,East Street,Farnham,GU9 7SW,50.0,3,51.216776,-0.79509,4.395078505069682,
GU9 7UG,Riverside Car Park,,Riverside Car Park,,Mike Hawthorn Dr,Farnham,Farnham,GU9 7UG,50.0,7,51.21746099999999,-0.790368,3.9999554141153943,
HA0 4PJ,"4-5 Glenmore Parade, Ealing Road",,,,,"4-5 Glenmore Parade, Ealing Road",Brent,HA0 4PJ,50.0,3,51.542079,-0.297659,3.9902986296055416,
HA1 1BB,Harrow-On-The-Hill LU Station Car Park,,,,,"Harrow-On-The-Hill LU Station Car Park, Station Approach, Harrow",Harrow,HA1 1BB,50.0,2,51.57842,-0.334269,3.999242005058075,
HA2 8HN,South Harrow LU Station Car Park,,,,,"South Harrow LU Station Car Park, South Hill Avenue, Harrow",Harrow,HA2 8HN,50.0,1,51.564444,-0.351416,1.9995253933432247,
HA3 6HF,Lidl - Harrow,,,,,354 High Road,Harrow,HA3 6HF,50.0,3,51.605893,-0.340069,3.245349924085872,
HA3 9RY,Shell Kenton Road,,,609,Kenton Road,,Harrow,HA3 9RY,50.0,3,51.585274,-0.284673,3.89458117319516,
HA4 0QP,BP Eastcote,,,726,Field End Road,,Ruislip,HA4 0QP,50.0,3,51.560337,-0.381091,4.2433505757134515,
HA4 0QQ,Lidl - South Ruislip,,,,,Victoria Road,London,HA4 0QQ,50.0,3,51.558206,-0.383076,4.390065729138032,
HA4 6NF,Ruislip Gardens Station Car Park,,,,,"Ruislip Gardens Station Car Park, West End Road, Ruislip",Hillingdon,HA4 6NF,50.0,2,51.56055,-0.41098,4.241525002776028,
HA5 2AF,SHELL RECHARGE PINNER,,SHELL PINNER,,,21 Pinner Green,Pinner,HA5 2AF,50.0,2,51.597523,-0.3941,4.2498216782871845,
HA8 6BJ,Queensbury Station Car Park,,,,,Turner road,Edgware,HA8 6BJ,50.0,2,51.59473,-0.286103,2.9969172636797765,
HA9 0EW,Shell - Wembley Park,,,,Empire Way,Wembley,London,HA9 0EW,50.0,3,51.561793,-0.282131,4.244014592985578,
HA9 8DS,Holiday Inn London - Wembley,,,,,Empire Way,London,HA9 8DS,50.0,2,51.555599,-0.285,3.9934699934424045,
HA9 9AB,21 Bridge Road,,,,,21 Bridge Road,Brent,HA9 9AB,50.0,3,51.564362,-0.278134,4.245290197276413,
HD1 3TG,Lockwood Road Rapid Charger,,,,236  242 Lockwood Road,,Huddersfield,HD1 3TG,50.0,4,53.634128,-1.79399,4.24033245153699,
HD1 5BQ,Bath Street Car Park,,,,Bath Street,,Huddersfield,HD1 5BQ,50.0,3,53.650955,-1.784375,4.492834823672095,
HD1 6HQ,Oldgate,,,,Oldgate,,Huddersfield,HD1 6HQ,50.0,3,53.646973,-1.778756,3.9918617710806212,
HD1 6NW,Yorkshire Rose Pub & Restaurant,,Yorkshire Rose Huddersfield,,,217 Leeds Road,Huddersfield,HD1 6NW,50.0,3,53.65491,-1.77606,2.9997871974550954,
HD3 3LX,Lidget Street Car Park,,,,Holly Bank Road,,Huddersfield,HD3 3LX,50.0,3,53.660467,-1.82291,3.9911473636800916,
HD6 1AT,Parsonage Lane Car Park,,Gooder Street,Brighouse Centre,Gooder Street,Hove Edge,Calderdale,HD6 1AT,50.0,6,53.702387,-1.783007,4.340981304035768,
HD6 1PE,Lidl - Brighouse,,,,,Wakefield Road,Brighouse,HD6 1PE,50.0,3,53.702192,-1.775536,3.999757973116906,
HD6 1QH,Crown Service Station Rapid Charger,,Crown Service Station,,Wakefield Road,Brighouse,Huddersfield,HD6 1QH,50.0,4,53.701119,-1.771427,2.9962585232171284,
HD61JR,Bethel Street,,,,,Bethel Street,Brighouse,HD61JR,50.0,3,53.700923,-1.779832,4.248875024591584,
HD7 5AB,New Street,,New Street,,New Street,Slaithwaite,Huddersfield,HD7 5AB,50.0,6,53.623619,-1.877758,2.6574918249913253,
HD93HW,"Crown Bottom, Holmfirth",,"Crown Bottom, Holmfirth",,Market Street,,Holmfirth,HD93HW,50.0,3,53.572289,-1.78528,2.9976790235010764,
HG1 2AB,Civic Centre - Harrogate,,,Harrogate Civic Centre,Saint Luke's Mount,,Harrogate,HG1 2AB,50.0,9,53.999899,-1.5406959999999998,3.6967329743559536,
HG4 2SB,Morrisons Ripon,,Wm Morrison Supermarkets PLC,,Harrogate Road,,Ripon,HG4 2SB,50.0,3,54.121737,-1.524474,4.998934179336773,
HG5 0DH,Lidl - Knaresborough,,,,,78 Chain Lane,North Yorkshire,HG5 0DH,50.0,3,54.006825,-1.454281,3.7443290973509042,
HP10 9QD,The Blacksmith Arms Harvester,,,,Old Marlow Road,Handy Cross,High Wycombe,HP10 9QD,50.0,2,51.609077,-0.771342,3.845540138922706,
HP11 1LJ,Lidl at 300 London Road,,Lidl at 300 London Road,,,300 London Road,High Wycombe,HP11 1LJ,50.0,9,51.62272,-0.7286199999999999,2.660850871994209,
HP11 1TB,SHELL RECHARGE CRESSEX,,SHELL CRESSEX,,,Marlow Road,High Wycombe,HP11 1TB,50.0,2,51.618498,-0.764984,2.9900466802991508,
HP11 1TL,Holiday Inn,,,,Handycross,High,Wycombe,HP11 1TL,50.0,2,51.6134,-0.771,4.332464367795747,
HP11 2SF,Halfords Autocentre High Wycombe,,,82,Desborough Avenue,,High Wycombe,HP11 2SF,50.0,3,51.631105,-0.762952,3.1480061264914037,
HP13 5HP,Spindle & Thread Pub & Restaurant,,Spindle & Thread High Wycombe,,,Bellfield Road,High Wycombe,HP13 5HP,50.0,3,51.63573,-0.75365,3.493863683642626,
HP13 5XX,Morrisons High Wycombe,,,,Wm Morrison Supermarkets PLC,,High Wycombe,HP13 5XX,50.0,3,51.634591,-0.753666,3.9959465951306457,
HP18 0PL,Westcott Venture Park Car Park,,,,Burnham Road,Westcott,Aylesbury,HP18 0PL,50.0,3,51.850746,-0.964356,3.798935189531112,
HP19 0FY,Best Western Garden Court,,,,,Buckingham Road,Aylesbury,HP19 0FY,50.0,2,51.8311,-0.8135,4.2449009814514955,
HP19 8FF,MK2,,The Gateway,,The Gateway,"Aylesbury District Council 2, The Gateway, Gateway Road",Aylesbury,HP19 8FF,50.0,16,51.821989571428574,-0.826825857142857,4.091214410319293,
HP20 2HX,Morrisons Aylesbury,,,,Wm Morrison Supermarkets PLC,Station Way West,Aylesbury,HP20 2HX,50.0,3,51.814649,-0.816497,4.246250252831229,
HP21 8TJ,Walton Court Centre,,,,,Hannon Road,Aylesbury,HP21 8TJ,50.0,4,51.801601,-0.8224,3.3726297864100867,
HP22 5QT,Holiday Inn Aylesbury,,,,New Road,Weston Turville,Aylesbury,HP22 5QT,50.0,2,51.808613,-0.769313,4.04722911697659,
HP3 8QE,Green Man Hemel Hempstead,,,,,Leverstock Green Road,Hemel Hempstead,HP3 8QE,50.0,2,51.748589,-0.433209,3.9921964732987725,
HP6 6AJ,Jet Amersham,,,,,40-42 Woodside Road,Amersham,HP6 6AJ,50.0,3,51.677729,-0.602539,4.243923753288702,
HP9 1UD,Miller & Carter Beaconsfield,,,,,Holtspur Top Lane,Beaconsfield,HP9 1UD,50.0,2,51.599873,-0.670522,2.9990080896570266,
HR1 1DN,Morrisons Hereford,,Wm Morrison Supermarkets PLC,,Station Approach,,Hereford,HR1 1DN,50.0,3,52.060294,-2.709236,4.243685868389109,
HR1 2SZ,Texaco Ledbury Road - Hereford,,Ledbury Road Service Station,,Ledbury Road Service Station,Ledbury Road,Hereford,HR1 2SZ,50.0,6,52.054639,-2.7026335,3.8703118196486144,
HR2 6FG,GB Electrical and Building Services,,Beech Lane,,Beech Lane,Skylon View,Hereford,HR2 6FG,50.0,6,52.04085,-2.68596,3.7401639813499403,
HR6 0DE,LEOMINSTER 1,,OK Diners Leominster,,A44,,Leominster,HR6 0DE,50.0,4,52.2329605,-2.73011,3.097165084654064,
HR6 8RH,Morrisons Leominster,,Wm Morrison Supermarkets Plc,,,Barons Cross Road,Leominster,HR6 8RH,50.0,3,52.22404,-2.756135,3.8492113193543664,
HR9 7AG,Morrisons Ross On Wye,,,,WM Morrison Supermarkets PLC,,Ross-on-Wye,HR9 7AG,50.0,3,51.915918,-2.57917,3.9932111949817917,
HS1 2BW,Comhairle nan Eilean Siar HQ,,,,Sandwick Road,,Stornoway,HS1 2BW,50.0,3,58.209137,-6.378897,4.443086981827897,
HS3 3DG,"Tarbert ferry terminal, Isle of Harris",,,,Pier Road,,Isle of Harris,HS3 3DG,50.0,3,57.897222,-6.798833,3.993060499709397,
HS6 5AA,Lochmaddy Waiting Room,,,1,Tigh A Chidhe,,Isle of North Uist,HS6 5AA,50.0,3,57.601241,-7.163857,3.1994845225884676,
HS7 5PJ,Lionacleit Community School,,,2-19,Liniclate,,Isle of Benbecula,HS7 5PJ,50.0,3,57.425344,-7.363748,3.598053991309548,
HS9 5XD,Castlebay Car Park,,,,Pier Road,,Isle of Barra,HS9 5XD,50.0,3,56.955201,-7.489373,4.497783827492415,
HU1 2BX,Holiday Inn Hull Marina,,,,The Marina,Castle Street,Hull,HU1 2BX,50.0,2,53.740677,-0.34054,4.296214338804349,
HU14 3HH,North Ferriby,,,,A63 Eastbound,Hull,North Ferriby,HU14 3HH,50.0,3,53.724147,-0.481145,3.442621281535657,
HU15 1AF,Morrison Brough,,,,Welton Rd,,Brough,HU15 1AF,50.0,3,53.729764,-0.5704,4.2443535178428125,
HU17 0RB,Lidl - Beverley,,,,,Hull Road,Beverley,HU17 0RB,50.0,3,53.835386,-0.407264,2.119178265870748,
HU17 8XE,Morrisons Beverley,,,,Wm Morrison Supermarkets PLC,Wingfield Way,Beverley,HU17 8XE,50.0,3,53.823338,-0.442651,3.9479404084058265,
HU3 4AE,Red Sails Pub & Restaurant,,Red Sails,,,2 Beacon Way,Hull,HU3 4AE,50.0,6,53.729502,-0.374517,4.345491617542985,
HU7 0EG,Jet - Stoneferry North,,,,Stoneferry North Filling Station,,Hull,HU7 0EG,50.0,3,53.769196,-0.328647,3.6415602552095545,
HU9 1PW,"Goldcrest Hull Pub & Restaurant, A63",,Goldcrest Pub & Restaurant,,,Victoria Park,Hull,HU9 1PW,50.0,3,53.74336,-0.32198,2.7113593906079023,
HX1 2JD,St Johns Lane,,,,,St. Johns Lane,Halifax,HX1 2JD,50.0,6,53.7198665,-1.8601865,3.997758154111466,
HX1 2ST,Paradise Car Park,,,,High Street,,Halifax,HX1 2ST,50.0,3,53.7204,-1.86618,4.697529113339111,
HX1 3LW,Haugh Shaw Road Car Park,,,,Haugh Shaw Road,,Halifax,HX1 3LW,50.0,3,53.714723,-1.881182,3.6174671347943357,
HX3 5WP,"North Bridge, Halifax",,,,North Bridge,,Halifax,HX3 5WP,50.0,3,53.727747,-1.860249,4.447069721941842,
HX3 6TE,"North Bridge, Halifax",,North Bridge Car Park,,,,Halifax,HX3 6TE,50.0,3,53.72722,-1.85969,4.299905560016618,
HX5 0ER,Timber Street Car Park,,,,Timber Street,Elland Lower Edge,Calderdale,HX5 0ER,50.0,3,53.685115,-1.835851,4.246491328752629,
HX5 9DY,Morrisons Elland,,,,Wm Morrison Supermarkets PLC,,Elland,HX5 9DY,50.0,3,53.687909,-1.836282,2.914192067939917,
HX6 3AN,	West Street Car Park Sowerby Bridge,,,,18 West Street,,Sowerby Bridge,HX6 3AN,50.0,3,53.706946,-1.91369,4.048308904117414,
HX7 7BL,Market Place,,,,Valley Road,,Hebden Bridge,HX7 7BL,50.0,3,53.742654,-2.012856,4.241373999847844,
IG1 1AG,Ilford 01,,CitiPark Clements road,24-30,Clements Road,,"Ilford, London",IG1 1AG,120.0,4,51.557648,0.072368,4.248703854586351,
IG1 2PG,BP Loxford Service Station,,,433,Ilford Lane,,Ilford,IG1 2PG,50.0,2,51.544454,0.078321,4.092090537987037,
IG1 4BS,Shell - Ilford,,,,,Ley Street,Ilford,IG1 4BS,50.0,3,51.563682,0.082489,3.993451174781508,
IG10 1RB,Morrisons Loughton,,Wm Morrisons Loughton,,248-250 High Road,,Loughton,IG10 1RB,50.0,3,51.64953,0.055047,3.4957613298871375,
IG11 8BU,SHELL RECHARGE BARKING,,SHELL BARKING,,,London Road,Barking,IG11 8BU,50.0,3,51.537633,0.071241,3.494794936478314,
IG11 9PG,SHELL RECHARGE RIPPLE ROAD,,SHELL RIPPLE ROAD,,,514 Ripple Road,Barking,IG11 9PG,50.0,3,51.53345,0.105572,4.340004902453991,
IG2 6LA,Cranbrook Road Car Park,,,,,"Cranbrook Road Car Park, Ilford",Richmond,IG2 6LA,50.0,6,51.577728,0.070218,2.9965685350053364,
IG2 6NE,Outside 347 - 353 Eastern Avenue,,,,,Outside 347 - 353 Eastern Avenue,Ilford,IG2 6NE,50.0,2,51.576656,0.065169,3.890773102408986,
IG2 6UH,Gants Hill United Reformed Church,,,,,Woodford Avenue,London,IG2 6UH,50.0,2,51.577728,0.064823,3.895047605036536,
IG2 7RH,Holiday Inn Express London,,Newbury Park,,Eastern Avenue 713,Illford,London,IG2 7RH,50.0,2,51.57473,0.085759,4.248719522741771,
IG2 7RN,Newbury Park Station Car Park 1,,,,Eastern Avenue,"Newbury Park Underground Station, Eastern Avenue",Ilford,IG2 7RN,50.0,10,51.575863000000005,0.0904866,4.093445848416114,
IG6 1NE,Barkingside Station Car Park,,,,,Barkingside Station Car Park,Ilford,IG6 1NE,50.0,2,51.586868,0.087291,2.991852335836206,
IG6 3BD,Hainault LU Station Car Park,,,,,"Hainault LU Station Car Park, New North Road",Redbridge,IG6 3BD,50.0,3,51.603085,0.09232,4.055208805901832,
IG6 3HD,"Fairlop Station Car Park,Forest Road",,,,,"Fairlop Station Car Park, Forest Road",Redbridge,IG6 3HD,50.0,2,51.59637,0.09102,3.994359548423742,
IG7 5PP,SHELL RECHARGE CHIGWELL,,SHELL CHIGWELL,,,124 Manor Road,Chigwell,IG7 5PP,50.0,2,51.610781,0.081386,3.353472745411955,
IG8 8AS,The Three Jolly Wheelers,,,,735 Chigwell Road,Woodford,London,IG8 8AS,50.0,2,51.609383,0.059356,3.9482344471401927,
IG8 8LG,Toby Carvery Woodford,,,,1 Southend Road,Woodford,Ilford,IG8 8LG,50.0,2,51.591545,0.04701,2.2943214024994405,
IP1 1UP,Novotel Ipswich Centre Hotel,,,,,Grey Friars Road,Ipswich,IP1 1UP,50.0,2,52.053532,1.152695,4.641711823910217,
IP1 2AP,"Elm Street Car Park, Ipswich",,"Elm Street Car Park, Ipswich",,"Elm Street Car Park, Ipswich",,Ipswich,IP1 2AP,50.0,3,52.057432,1.149016,3.135640557669023,
IP11 2XD,Morrisons Felixstowe,,Wm Morrison Supermarkets PLC,,Wm Morrison Supermarkets PLC,Grange Farm Avenue,Felixstowe,IP11 2XD,50.0,6,51.965128,1.326964,4.493769855755584,
IP12 4LH,SHELL RECHARGE LITTLE WAITROSE WOODBRIDGE,,SHELL LITTLE WAITROSE WOODBRI,,,24 Grove Road,Woodbridge,IP12 4LH,50.0,2,52.097763,1.29892,4.241892983404655,
IP24 3ED,NUNS BRIDGE 1,,Nun's Bridge Filling Station,,172 Bury Road,,Thetford,IP24 3ED,50.0,4,52.404861,0.7452155,3.995121279043956,
IP29 5PH,ST EDMUNDS 1,,Bannatyne Health Club & Spa,,Horringer Road,,Bury Saint Edmunds,IP29 5PH,50.0,4,52.233567,0.6907365,4.997416334778742,
IP3 9QJ,Raven Pub and Restaurant,,Raven Pub and Restaurant,,,1 Hening Ave,Ipswich,IP3 9QJ,50.0,3,52.03008,1.2001,3.294818159037068,
IP32 6NU,Marshall,,Marshalls Nissan,,,Lamdin Road,Bury St. Edmunds,IP32 6NU,50.0,1,52.269015,0.705438,3.499524844434606,
IP33 3AA,"School Yard Car Park, Bury St Edmunds",,"School Yard Car Park, Bury St",,,,Bury St Edmunds,IP33 3AA,50.0,3,52.246904,0.709263,4.490612731588795,
IP33 3HA,Texaco Bury St Edmunds,,,,1 Newmarket Road,,Bury St. Edmunds,IP33 3HA,50.0,3,52.247906,0.697539,3.9499622783342407,
IP7 6LB,Morrisons Hadleigh,,Wm Morrison Supermarkets PLC,,Calais Street,,Ipswich,IP7 6LB,50.0,3,52.050422,0.954732,3.8910201727999323,
IP9 2JJ,Capelgate North,,,,A12 Northbound,,Ipswich,IP9 2JJ,50.0,3,52.00349,1.057531,3.493406422708685,
IP9 2JP,EG Capel St Mary Starbucks,,,,A12 Southbound,,Ipswich,IP9 2JP,50.0,3,52.00335,1.059199,3.719964503580676,
